%time,field.header.seq,field.header.stamp,field.header.frame_id,field.status.status,field.status.service,field.latitude,field.longitude,field.altitude,field.position_covariance0,field.position_covariance1,field.position_covariance2,field.position_covariance3,field.position_covariance4,field.position_covariance5,field.position_covariance6,field.position_covariance7,field.position_covariance8,field.position_covariance_type
1557407573016888041,557,1557407573016888041,gps,0,3,57.7079896,11.9405257,139.524,26.440164,0.0,0.0,0.0,26.440164,0.0,0.0,0.0,38.081241,2
1557407574016801417,558,1557407574016801417,gps,0,3,57.7079907,11.9405202,140.08,26.163225,0.0,0.0,0.0,26.163225,0.0,0.0,0.0,38.044224,2
1557407575017300824,559,1557407575017300824,gps,0,3,57.7079921,11.9405138,140.676,25.877569,0.0,0.0,0.0,25.877569,0.0,0.0,0.0,37.982569,2
1557407576016626929,560,1557407576016626929,gps,0,3,57.7079929,11.9405047,141.051,25.573249,0.0,0.0,0.0,25.573249,0.0,0.0,0.0,37.884025,2
1557407577015916394,561,1557407577015916394,gps,0,3,57.7079939,11.9404983,141.583,25.280784,0.0,0.0,0.0,25.280784,0.0,0.0,0.0,37.736449,2
1557407578017286818,562,1557407578017286818,gps,0,3,57.7079944,11.9404886,141.888,24.960016,0.0,0.0,0.0,24.960016,0.0,0.0,0.0,37.552384,2
1557407579017001242,563,1557407579017001242,gps,0,3,57.7079957,11.9404799,142.439,24.581764,0.0,0.0,0.0,24.581764,0.0,0.0,0.0,37.344321,2
1557407580017017677,564,1557407580017017677,gps,0,3,57.7079976,11.9404714,143.063,24.196561,0.0,0.0,0.0,24.196561,0.0,0.0,0.0,37.112464,2
1557407581020373431,565,1557407581020373431,gps,0,3,57.7079994,11.9404639,143.634,23.824161,0.0,0.0,0.0,23.824161,0.0,0.0,0.0,36.905625,2
1557407582016569409,566,1557407582016569409,gps,0,3,57.7080009,11.9404572,144.155,23.483716,0.0,0.0,0.0,23.483716,0.0,0.0,0.0,36.687249,2
1557407583016971090,567,1557407583016971090,gps,0,3,57.7080022,11.9404509,144.571,23.1361,0.0,0.0,0.0,23.1361,0.0,0.0,0.0,36.469521,2
1557407584016643616,568,1557407584016643616,gps,0,3,57.7080019,11.9404444,144.766,22.867524,0.0,0.0,0.0,22.867524,0.0,0.0,0.0,36.312676,2
1557407585016880498,569,1557407585016880498,gps,0,3,57.7080015,11.9404387,144.95,22.591009,0.0,0.0,0.0,22.591009,0.0,0.0,0.0,36.132121,2
1557407586017772691,570,1557407586017772691,gps,0,3,57.7080006,11.9404307,144.807,22.335076,0.0,0.0,0.0,22.335076,0.0,0.0,0.0,35.952016,2
1557407587017222816,571,1557407587017222816,gps,0,3,57.7079994,11.9404215,144.603,22.099401,0.0,0.0,0.0,22.099401,0.0,0.0,0.0,35.796289,2
1557407588016124390,572,1557407588016124390,gps,0,3,57.7079992,11.940416,144.663,21.911761,0.0,0.0,0.0,21.911761,0.0,0.0,0.0,35.724529,2
1557407589016931022,573,1557407589016931022,gps,0,3,57.707999,11.9404102,144.699,21.734244,0.0,0.0,0.0,21.734244,0.0,0.0,0.0,35.676729,2
1557407590017409541,574,1557407590017409541,gps,0,3,57.7079988,11.9404051,144.712,21.548164,0.0,0.0,0.0,21.548164,0.0,0.0,0.0,35.628961,2
1557407591016846499,575,1557407591016846499,gps,0,3,57.7079983,11.9403992,144.714,21.325924,0.0,0.0,0.0,21.325924,0.0,0.0,0.0,35.581225,2
1557407592016455518,576,1557407592016455518,gps,0,3,57.7079981,11.9403925,144.804,21.206025,0.0,0.0,0.0,21.206025,0.0,0.0,0.0,35.652841,2
1557407593016340985,577,1557407593016340985,gps,0,3,57.7079979,11.9403873,144.883,21.123216,0.0,0.0,0.0,21.123216,0.0,0.0,0.0,35.736484,2
1557407594016465533,578,1557407594016465533,gps,0,3,57.7079979,11.9403827,145.006,21.0681,0.0,0.0,0.0,21.0681,0.0,0.0,0.0,35.796289,2
1557407595015246348,579,1557407595015246348,gps,0,3,57.7079981,11.9403789,145.128,21.013056,0.0,0.0,0.0,21.013056,0.0,0.0,0.0,35.832196,2
1557407596016396730,580,1557407596016396730,gps,0,3,57.7079983,11.9403759,145.3,20.994724,0.0,0.0,0.0,20.994724,0.0,0.0,0.0,35.916049,2
1557407597015906112,581,1557407597015906112,gps,0,3,57.7079987,11.940373,145.488,20.967241,0.0,0.0,0.0,20.967241,0.0,0.0,0.0,35.964009,2
1557407598016666400,582,1557407598016666400,gps,0,3,57.7079987,11.9403702,145.612,20.958084,0.0,0.0,0.0,20.958084,0.0,0.0,0.0,36.096064,2
1557407599015410519,583,1557407599015410519,gps,0,3,57.7079985,11.9403692,145.673,20.930625,0.0,0.0,0.0,20.930625,0.0,0.0,0.0,36.156169,2
1557407600016174431,584,1557407600016174431,gps,0,3,57.7079982,11.9403689,145.736,21.013056,0.0,0.0,0.0,21.013056,0.0,0.0,0.0,36.228361,2
1557407601016728240,585,1557407601016728240,gps,0,3,57.7079975,11.9403688,145.69,21.215236,0.0,0.0,0.0,21.215236,0.0,0.0,0.0,36.3609,2
1557407602016243037,586,1557407602016243037,gps,0,3,57.7079975,11.9403713,145.778,21.557449,0.0,0.0,0.0,21.557449,0.0,0.0,0.0,36.6025,2
1557407603016801575,587,1557407603016801575,gps,0,3,57.7079972,11.9403731,145.791,21.9024,0.0,0.0,0.0,21.9024,0.0,0.0,0.0,36.881329,2
1557407604016833548,588,1557407604016833548,gps,0,3,57.7079971,11.9403742,145.814,22.335076,0.0,0.0,0.0,22.335076,0.0,0.0,0.0,37.197801,2
1557407605016698262,589,1557407605016698262,gps,0,3,57.7079968,11.9403773,145.847,22.886656,0.0,0.0,0.0,22.886656,0.0,0.0,0.0,37.613689,2
1557407606016703113,590,1557407606016703113,gps,0,3,57.7079965,11.9403815,145.834,23.503104,0.0,0.0,0.0,23.503104,0.0,0.0,0.0,38.081241,2
1557407607016797246,591,1557407607016797246,gps,0,3,57.7079958,11.9403844,145.745,24.088464,0.0,0.0,0.0,24.088464,0.0,0.0,0.0,38.539264,2
1557407608017341928,592,1557407608017341928,gps,0,3,57.7079955,11.9403886,145.76,24.681024,0.0,0.0,0.0,24.681024,0.0,0.0,0.0,39.050001,2
1557407609016886814,593,1557407609016886814,gps,0,3,57.7079948,11.9403919,145.695,25.190361,0.0,0.0,0.0,25.190361,0.0,0.0,0.0,39.526369,2
1557407610017962516,594,1557407610017962516,gps,0,3,57.707994,11.9403956,145.607,25.644096,0.0,0.0,0.0,25.644096,0.0,0.0,0.0,39.980329,2
1557407611018231418,595,1557407611018231418,gps,0,3,57.707993,11.9403996,145.515,26.081449,0.0,0.0,0.0,26.081449,0.0,0.0,0.0,40.462321,2
1557407612017409414,596,1557407612017409414,gps,0,3,57.7079908,11.940399,145.281,26.132544,0.0,0.0,0.0,26.132544,0.0,0.0,0.0,40.96,2
1557407613016287114,597,1557407613016287114,gps,0,3,57.70799,11.9404004,145.19,26.3169,0.0,0.0,0.0,26.3169,0.0,0.0,0.0,41.447844,2
1557407614017309393,598,1557407614017309393,gps,0,3,57.7079887,11.9403994,145.08,26.460736,0.0,0.0,0.0,26.460736,0.0,0.0,0.0,41.899729,2
1557407615017211757,599,1557407615017211757,gps,0,3,57.7079866,11.9403975,144.801,26.574025,0.0,0.0,0.0,26.574025,0.0,0.0,0.0,42.315025,2
1557407616016371388,600,1557407616016371388,gps,0,3,57.7079847,11.940396,144.55,26.697889,0.0,0.0,0.0,26.697889,0.0,0.0,0.0,42.863209,2
1557407617016514084,601,1557407617016514084,gps,0,3,57.7079823,11.9403915,144.098,26.770276,0.0,0.0,0.0,26.770276,0.0,0.0,0.0,43.309561,2
1557407618017250402,602,1557407618017250402,gps,0,3,57.7079792,11.9403858,143.439,26.770276,0.0,0.0,0.0,26.770276,0.0,0.0,0.0,43.678881,2
1557407619016749409,603,1557407619016749409,gps,0,3,57.7079764,11.9403756,142.884,26.790976,0.0,0.0,0.0,26.790976,0.0,0.0,0.0,44.195904,2
1557407620016628031,604,1557407620016628031,gps,0,3,57.7079745,11.9403722,142.661,26.7289,0.0,0.0,0.0,26.7289,0.0,0.0,0.0,44.715969,2
1557407621016950033,605,1557407621016950033,gps,0,3,57.7079722,11.940367,142.293,26.697889,0.0,0.0,0.0,26.697889,0.0,0.0,0.0,45.118089,2
1557407622017437308,606,1557407622017437308,gps,0,3,57.7079694,11.9403608,141.831,26.656569,0.0,0.0,0.0,26.656569,0.0,0.0,0.0,45.454564,2
1557407623017111653,607,1557407623017111653,gps,0,3,57.7079672,11.9403568,141.633,26.6256,0.0,0.0,0.0,26.6256,0.0,0.0,0.0,45.751696,2
1557407624017755838,608,1557407624017755838,gps,0,3,57.7079643,11.940351,141.22,26.604964,0.0,0.0,0.0,26.604964,0.0,0.0,0.0,46.009089,2
1557407625016714305,609,1557407625016714305,gps,0,3,57.707962,11.9403481,141.096,26.604964,0.0,0.0,0.0,26.604964,0.0,0.0,0.0,46.294416,2
1557407626017829705,610,1557407626017829705,gps,0,3,57.707959,11.9403434,140.845,26.646244,0.0,0.0,0.0,26.646244,0.0,0.0,0.0,46.635241,2
1557407627016893813,611,1557407627016893813,gps,0,3,57.7079554,11.940338,140.443,26.687556,0.0,0.0,0.0,26.687556,0.0,0.0,0.0,46.963609,2
1557407628015988634,612,1557407628015988634,gps,0,3,57.7079531,11.9403343,140.459,26.759929,0.0,0.0,0.0,26.759929,0.0,0.0,0.0,47.361924,2
1557407629017210172,613,1557407629017210172,gps,0,3,57.7079505,11.9403281,140.312,26.873856,0.0,0.0,0.0,26.873856,0.0,0.0,0.0,47.872561,2
1557407630016246790,614,1557407630016246790,gps,0,3,57.7079478,11.9403214,140.077,27.008809,0.0,0.0,0.0,27.008809,0.0,0.0,0.0,48.427681,2
1557407631017106248,615,1557407631017106248,gps,0,3,57.7079448,11.940319,139.824,27.081616,0.0,0.0,0.0,27.081616,0.0,0.0,0.0,48.916036,2
1557407632017456902,616,1557407632017456902,gps,0,3,57.7079418,11.9403119,139.449,27.237961,0.0,0.0,0.0,27.237961,0.0,0.0,0.0,49.533444,2
1557407633016437213,617,1557407633016437213,gps,0,3,57.7079387,11.9403044,138.937,27.405225,0.0,0.0,0.0,27.405225,0.0,0.0,0.0,50.1264,2
1557407634017240674,618,1557407634017240674,gps,0,3,57.7079342,11.9403024,138.256,27.489049,0.0,0.0,0.0,27.489049,0.0,0.0,0.0,50.665924,2
1557407635016270369,619,1557407635016270369,gps,0,3,57.7079313,11.9402968,137.765,27.709696,0.0,0.0,0.0,27.709696,0.0,0.0,0.0,51.294244,2
1557407636016768492,620,1557407636016768492,gps,0,3,57.7079282,11.9402912,137.163,27.931225,0.0,0.0,0.0,27.931225,0.0,0.0,0.0,51.912025,2
1557407637016993818,621,1557407637016993818,gps,0,3,57.707924,11.9402909,136.395,28.047616,0.0,0.0,0.0,28.047616,0.0,0.0,0.0,52.446564,2
1557407638016579077,622,1557407638016579077,gps,0,3,57.7079213,11.9402868,135.835,28.313041,0.0,0.0,0.0,28.313041,0.0,0.0,0.0,53.071225,2
1557407639015811085,623,1557407639015811085,gps,0,3,57.7079182,11.9402823,135.153,28.558336,0.0,0.0,0.0,28.558336,0.0,0.0,0.0,53.626329,2
1557407640017109706,624,1557407640017109706,gps,0,3,57.7079134,11.9402854,134.265,28.772496,0.0,0.0,0.0,28.772496,0.0,0.0,0.0,54.051904,2
1557407641018876569,625,1557407641018876569,gps,0,3,57.7079111,11.9402834,133.826,29.333056,0.0,0.0,0.0,29.333056,0.0,0.0,0.0,54.686025,2
1557407642015872075,626,1557407642015872075,gps,0,3,57.7079083,11.9402841,133.204,29.7025,0.0,0.0,0.0,29.7025,0.0,0.0,0.0,55.145476,2
1557407643015992866,627,1557407643015992866,gps,0,3,57.7079061,11.9402817,132.73,30.426256,0.0,0.0,0.0,30.426256,0.0,0.0,0.0,55.860676,2
1557407644016470261,628,1557407644016470261,gps,0,3,57.7079032,11.9402809,132.118,30.891364,0.0,0.0,0.0,30.891364,0.0,0.0,0.0,56.4001,2
1557407645016292356,629,1557407645016292356,gps,0,3,57.7079008,11.9402787,131.614,31.775769,0.0,0.0,0.0,31.775769,0.0,0.0,0.0,57.214096,2
