%time,field.header.seq,field.header.stamp,field.header.frame_id,field.child_frame_id,field.pose.pose.position.x,field.pose.pose.position.y,field.pose.pose.position.z,field.pose.pose.orientation.x,field.pose.pose.orientation.y,field.pose.pose.orientation.z,field.pose.pose.orientation.w,field.pose.covariance0,field.pose.covariance1,field.pose.covariance2,field.pose.covariance3,field.pose.covariance4,field.pose.covariance5,field.pose.covariance6,field.pose.covariance7,field.pose.covariance8,field.pose.covariance9,field.pose.covariance10,field.pose.covariance11,field.pose.covariance12,field.pose.covariance13,field.pose.covariance14,field.pose.covariance15,field.pose.covariance16,field.pose.covariance17,field.pose.covariance18,field.pose.covariance19,field.pose.covariance20,field.pose.covariance21,field.pose.covariance22,field.pose.covariance23,field.pose.covariance24,field.pose.covariance25,field.pose.covariance26,field.pose.covariance27,field.pose.covariance28,field.pose.covariance29,field.pose.covariance30,field.pose.covariance31,field.pose.covariance32,field.pose.covariance33,field.pose.covariance34,field.pose.covariance35,field.twist.twist.linear.x,field.twist.twist.linear.y,field.twist.twist.linear.z,field.twist.twist.angular.x,field.twist.twist.angular.y,field.twist.twist.angular.z,field.twist.covariance0,field.twist.covariance1,field.twist.covariance2,field.twist.covariance3,field.twist.covariance4,field.twist.covariance5,field.twist.covariance6,field.twist.covariance7,field.twist.covariance8,field.twist.covariance9,field.twist.covariance10,field.twist.covariance11,field.twist.covariance12,field.twist.covariance13,field.twist.covariance14,field.twist.covariance15,field.twist.covariance16,field.twist.covariance17,field.twist.covariance18,field.twist.covariance19,field.twist.covariance20,field.twist.covariance21,field.twist.covariance22,field.twist.covariance23,field.twist.covariance24,field.twist.covariance25,field.twist.covariance26,field.twist.covariance27,field.twist.covariance28,field.twist.covariance29,field.twist.covariance30,field.twist.covariance31,field.twist.covariance32,field.twist.covariance33,field.twist.covariance34,field.twist.covariance35
1557407100019055020,82,1557407100019055020,map,,10.0161755923,-2.85776069853,-5.962,0.0,0.0,0.0,1.0,21.114025,0.0,0.0,0.0,0.0,0.0,0.0,21.114025,0.0,0.0,0.0,0.0,0.0,0.0,89.946256,0.0,0.0,0.0,0.0,0.0,0.0,0.0,0.0,0.0,0.0,0.0,0.0,0.0,0.0,0.0,0.0,0.0,0.0,0.0,0.0,0.0,0.0,0.0,0.0,0.0,0.0,0.0,0.0,0.0,0.0,0.0,0.0,0.0,0.0,0.0,0.0,0.0,0.0,0.0,0.0,0.0,0.0,0.0,0.0,0.0,0.0,0.0,0.0,0.0,0.0,0.0,0.0,0.0,0.0,0.0,0.0,0.0,0.0,0.0,0.0,0.0,0.0,0.0
1557407101019455785,83,1557407101019455785,map,,9.82131283637,-2.7278801892,-6.861,0.0,0.0,0.0,1.0,20.958084,0.0,0.0,0.0,0.0,0.0,0.0,20.958084,0.0,0.0,0.0,0.0,0.0,0.0,88.491649,0.0,0.0,0.0,0.0,0.0,0.0,0.0,0.0,0.0,0.0,0.0,0.0,0.0,0.0,0.0,0.0,0.0,0.0,0.0,0.0,0.0,0.0,0.0,0.0,0.0,0.0,0.0,0.0,0.0,0.0,0.0,0.0,0.0,0.0,0.0,0.0,0.0,0.0,0.0,0.0,0.0,0.0,0.0,0.0,0.0,0.0,0.0,0.0,0.0,0.0,0.0,0.0,0.0,0.0,0.0,0.0,0.0,0.0,0.0,0.0,0.0,0.0,0.0
1557407102018309857,84,1557407102018309857,map,,9.63011360727,-2.63042323105,-7.626,0.0,0.0,0.0,1.0,20.775364,0.0,0.0,0.0,0.0,0.0,0.0,20.775364,0.0,0.0,0.0,0.0,0.0,0.0,86.49,0.0,0.0,0.0,0.0,0.0,0.0,0.0,0.0,0.0,0.0,0.0,0.0,0.0,0.0,0.0,0.0,0.0,0.0,0.0,0.0,0.0,0.0,0.0,0.0,0.0,0.0,0.0,0.0,0.0,0.0,0.0,0.0,0.0,0.0,0.0,0.0,0.0,0.0,0.0,0.0,0.0,0.0,0.0,0.0,0.0,0.0,0.0,0.0,0.0,0.0,0.0,0.0,0.0,0.0,0.0,0.0,0.0,0.0,0.0,0.0,0.0,0.0,0.0
1557407103017558531,85,1557407103017558531,map,,9.46756812185,-2.56909972429,-8.451,0.0,0.0,0.0,1.0,20.6116,0.0,0.0,0.0,0.0,0.0,0.0,20.6116,0.0,0.0,0.0,0.0,0.0,0.0,84.713616,0.0,0.0,0.0,0.0,0.0,0.0,0.0,0.0,0.0,0.0,0.0,0.0,0.0,0.0,0.0,0.0,0.0,0.0,0.0,0.0,0.0,0.0,0.0,0.0,0.0,0.0,0.0,0.0,0.0,0.0,0.0,0.0,0.0,0.0,0.0,0.0,0.0,0.0,0.0,0.0,0.0,0.0,0.0,0.0,0.0,0.0,0.0,0.0,0.0,0.0,0.0,0.0,0.0,0.0,0.0,0.0,0.0,0.0,0.0,0.0,0.0,0.0,0.0
1557407104018090413,86,1557407104018090413,map,,9.32118126936,-2.54205472115,-9.139,0.0,0.0,0.0,1.0,20.457529,1.7763568394e-15,0.0,0.0,0.0,0.0,-1.7763568394e-15,20.457529,0.0,0.0,0.0,0.0,0.0,0.0,83.028544,0.0,0.0,0.0,0.0,0.0,0.0,0.0,0.0,0.0,0.0,0.0,0.0,0.0,0.0,0.0,0.0,0.0,0.0,0.0,0.0,0.0,0.0,0.0,0.0,0.0,0.0,0.0,0.0,0.0,0.0,0.0,0.0,0.0,0.0,0.0,0.0,0.0,0.0,0.0,0.0,0.0,0.0,0.0,0.0,0.0,0.0,0.0,0.0,0.0,0.0,0.0,0.0,0.0,0.0,0.0,0.0,0.0,0.0,0.0,0.0,0.0,0.0,0.0
1557407105017172584,87,1557407105017172584,map,,9.18933945522,-2.60749476682,-9.762,0.0,0.0,0.0,1.0,20.295025,0.0,0.0,0.0,0.0,0.0,0.0,20.295025,0.0,0.0,0.0,0.0,0.0,0.0,81.3604,0.0,0.0,0.0,0.0,0.0,0.0,0.0,0.0,0.0,0.0,0.0,0.0,0.0,0.0,0.0,0.0,0.0,0.0,0.0,0.0,0.0,0.0,0.0,0.0,0.0,0.0,0.0,0.0,0.0,0.0,0.0,0.0,0.0,0.0,0.0,0.0,0.0,0.0,0.0,0.0,0.0,0.0,0.0,0.0,0.0,0.0,0.0,0.0,0.0,0.0,0.0,0.0,0.0,0.0,0.0,0.0,0.0,0.0,0.0,0.0,0.0,0.0,0.0
1557407106017740532,88,1557407106017740532,map,,9.0948738819,-2.64129050449,-10.287,0.0,0.0,0.0,1.0,20.151121,1.7763568394e-15,0.0,0.0,0.0,0.0,-1.7763568394e-15,20.151121,0.0,0.0,0.0,0.0,0.0,0.0,79.798489,0.0,0.0,0.0,0.0,0.0,0.0,0.0,0.0,0.0,0.0,0.0,0.0,0.0,0.0,0.0,0.0,0.0,0.0,0.0,0.0,0.0,0.0,0.0,0.0,0.0,0.0,0.0,0.0,0.0,0.0,0.0,0.0,0.0,0.0,0.0,0.0,0.0,0.0,0.0,0.0,0.0,0.0,0.0,0.0,0.0,0.0,0.0,0.0,0.0,0.0,0.0,0.0,0.0,0.0,0.0,0.0,0.0,0.0,0.0,0.0,0.0,0.0,0.0
1557407107017046529,89,1557407107017046529,map,,8.96464566421,-2.64852401335,-10.876,0.0,0.0,0.0,1.0,20.034576,0.0,0.0,0.0,0.0,0.0,0.0,20.034576,0.0,0.0,0.0,0.0,0.0,0.0,78.251716,0.0,0.0,0.0,0.0,0.0,0.0,0.0,0.0,0.0,0.0,0.0,0.0,0.0,0.0,0.0,0.0,0.0,0.0,0.0,0.0,0.0,0.0,0.0,0.0,0.0,0.0,0.0,0.0,0.0,0.0,0.0,0.0,0.0,0.0,0.0,0.0,0.0,0.0,0.0,0.0,0.0,0.0,0.0,0.0,0.0,0.0,0.0,0.0,0.0,0.0,0.0,0.0,0.0,0.0,0.0,0.0,0.0,0.0,0.0,0.0,0.0,0.0,0.0
1557407108017450837,90,1557407108017450837,map,,8.87007100973,-2.64511059783,-11.375,0.0,0.0,0.0,1.0,19.900521,0.0,0.0,0.0,0.0,0.0,0.0,19.900521,0.0,0.0,0.0,0.0,0.0,0.0,76.7376,0.0,0.0,0.0,0.0,0.0,0.0,0.0,0.0,0.0,0.0,0.0,0.0,0.0,0.0,0.0,0.0,0.0,0.0,0.0,0.0,0.0,0.0,0.0,0.0,0.0,0.0,0.0,0.0,0.0,0.0,0.0,0.0,0.0,0.0,0.0,0.0,0.0,0.0,0.0,0.0,0.0,0.0,0.0,0.0,0.0,0.0,0.0,0.0,0.0,0.0,0.0,0.0,0.0,0.0,0.0,0.0,0.0,0.0,0.0,0.0,0.0,0.0,0.0
1557407109017562223,91,1557407109017562223,map,,8.77743719891,-2.69511811715,-11.794,0.0,0.0,0.0,1.0,19.793601,0.0,0.0,0.0,0.0,0.0,0.0,19.793601,0.0,0.0,0.0,0.0,0.0,0.0,75.290329,0.0,0.0,0.0,0.0,0.0,0.0,0.0,0.0,0.0,0.0,0.0,0.0,0.0,0.0,0.0,0.0,0.0,0.0,0.0,0.0,0.0,0.0,0.0,0.0,0.0,0.0,0.0,0.0,0.0,0.0,0.0,0.0,0.0,0.0,0.0,0.0,0.0,0.0,0.0,0.0,0.0,0.0,0.0,0.0,0.0,0.0,0.0,0.0,0.0,0.0,0.0,0.0,0.0,0.0,0.0,0.0,0.0,0.0,0.0,0.0,0.0,0.0,0.0
1557407110017298259,92,1557407110017298259,map,,8.65981317125,-2.74141574744,-12.278,0.0,0.0,0.0,1.0,19.704721,0.0,0.0,0.0,0.0,0.0,0.0,19.704721,0.0,0.0,0.0,0.0,0.0,0.0,73.891216,0.0,0.0,0.0,0.0,0.0,0.0,0.0,0.0,0.0,0.0,0.0,0.0,0.0,0.0,0.0,0.0,0.0,0.0,0.0,0.0,0.0,0.0,0.0,0.0,0.0,0.0,0.0,0.0,0.0,0.0,0.0,0.0,0.0,0.0,0.0,0.0,0.0,0.0,0.0,0.0,0.0,0.0,0.0,0.0,0.0,0.0,0.0,0.0,0.0,0.0,0.0,0.0,0.0,0.0,0.0,0.0,0.0,0.0,0.0,0.0,0.0,0.0,0.0
1557407111017987961,93,1557407111017987961,map,,8.53163489047,-2.83927937504,-12.608,0.0,0.0,0.0,1.0,19.589476,0.0,0.0,0.0,0.0,0.0,0.0,19.589476,0.0,0.0,0.0,0.0,0.0,0.0,72.488196,0.0,0.0,0.0,0.0,0.0,0.0,0.0,0.0,0.0,0.0,0.0,0.0,0.0,0.0,0.0,0.0,0.0,0.0,0.0,0.0,0.0,0.0,0.0,0.0,0.0,0.0,0.0,0.0,0.0,0.0,0.0,0.0,0.0,0.0,0.0,0.0,0.0,0.0,0.0,0.0,0.0,0.0,0.0,0.0,0.0,0.0,0.0,0.0,0.0,0.0,0.0,0.0,0.0,0.0,0.0,0.0,0.0,0.0,0.0,0.0,0.0,0.0,0.0
1557407112017295254,94,1557407112017295254,map,,8.4462190643,-2.91692484915,-12.846,0.0,0.0,0.0,1.0,19.474569,0.0,0.0,0.0,0.0,0.0,0.0,19.474569,0.0,0.0,0.0,0.0,0.0,0.0,71.0649,0.0,0.0,0.0,0.0,0.0,0.0,0.0,0.0,0.0,0.0,0.0,0.0,0.0,0.0,0.0,0.0,0.0,0.0,0.0,0.0,0.0,0.0,0.0,0.0,0.0,0.0,0.0,0.0,0.0,0.0,0.0,0.0,0.0,0.0,0.0,0.0,0.0,0.0,0.0,0.0,0.0,0.0,0.0,0.0,0.0,0.0,0.0,0.0,0.0,0.0,0.0,0.0,0.0,0.0,0.0,0.0,0.0,0.0,0.0,0.0,0.0,0.0,0.0
1557407113017513587,95,1557407113017513587,map,,8.40895191021,-2.98577833734,-13.087,0.0,0.0,0.0,1.0,19.342404,0.0,0.0,0.0,0.0,0.0,0.0,19.342404,0.0,0.0,0.0,0.0,0.0,0.0,69.5556,0.0,0.0,0.0,0.0,0.0,0.0,0.0,0.0,0.0,0.0,0.0,0.0,0.0,0.0,0.0,0.0,0.0,0.0,0.0,0.0,0.0,0.0,0.0,0.0,0.0,0.0,0.0,0.0,0.0,0.0,0.0,0.0,0.0,0.0,0.0,0.0,0.0,0.0,0.0,0.0,0.0,0.0,0.0,0.0,0.0,0.0,0.0,0.0,0.0,0.0,0.0,0.0,0.0,0.0,0.0,0.0,0.0,0.0,0.0,0.0,0.0,0.0,0.0
1557407114018203052,96,1557407114018203052,map,,8.38396169152,-2.98206844367,-13.522,0.0,0.0,0.0,1.0,19.201924,0.0,0.0,0.0,0.0,0.0,0.0,19.201924,0.0,0.0,0.0,0.0,0.0,0.0,68.095504,0.0,0.0,0.0,0.0,0.0,0.0,0.0,0.0,0.0,0.0,0.0,0.0,0.0,0.0,0.0,0.0,0.0,0.0,0.0,0.0,0.0,0.0,0.0,0.0,0.0,0.0,0.0,0.0,0.0,0.0,0.0,0.0,0.0,0.0,0.0,0.0,0.0,0.0,0.0,0.0,0.0,0.0,0.0,0.0,0.0,0.0,0.0,0.0,0.0,0.0,0.0,0.0,0.0,0.0,0.0,0.0,0.0,0.0,0.0,0.0,0.0,0.0,0.0
1557407115018057471,97,1557407115018057471,map,,8.36230774689,-2.89915461838,-13.922,0.0,0.0,0.0,1.0,19.079424,0.0,0.0,0.0,0.0,0.0,0.0,19.079424,0.0,0.0,0.0,0.0,0.0,0.0,66.945124,0.0,0.0,0.0,0.0,0.0,0.0,0.0,0.0,0.0,0.0,0.0,0.0,0.0,0.0,0.0,0.0,0.0,0.0,0.0,0.0,0.0,0.0,0.0,0.0,0.0,0.0,0.0,0.0,0.0,0.0,0.0,0.0,0.0,0.0,0.0,0.0,0.0,0.0,0.0,0.0,0.0,0.0,0.0,0.0,0.0,0.0,0.0,0.0,0.0,0.0,0.0,0.0,0.0,0.0,0.0,0.0,0.0,0.0,0.0,0.0,0.0,0.0,0.0
1557407116016660614,98,1557407116016660614,map,,8.35681244824,-2.85051928926,-14.267,0.0,0.0,0.0,1.0,18.957316,0.0,0.0,0.0,0.0,0.0,0.0,18.957316,0.0,0.0,0.0,0.0,0.0,0.0,65.723449,0.0,0.0,0.0,0.0,0.0,0.0,0.0,0.0,0.0,0.0,0.0,0.0,0.0,0.0,0.0,0.0,0.0,0.0,0.0,0.0,0.0,0.0,0.0,0.0,0.0,0.0,0.0,0.0,0.0,0.0,0.0,0.0,0.0,0.0,0.0,0.0,0.0,0.0,0.0,0.0,0.0,0.0,0.0,0.0,0.0,0.0,0.0,0.0,0.0,0.0,0.0,0.0,0.0,0.0,0.0,0.0,0.0,0.0,0.0,0.0,0.0,0.0,0.0
1557407117018192878,99,1557407117018192878,map,,8.31372273434,-2.75910995714,-14.676,0.0,0.0,0.0,1.0,18.818244,0.0,0.0,0.0,0.0,0.0,0.0,18.818244,0.0,0.0,0.0,0.0,0.0,0.0,64.593369,0.0,0.0,0.0,0.0,0.0,0.0,0.0,0.0,0.0,0.0,0.0,0.0,0.0,0.0,0.0,0.0,0.0,0.0,0.0,0.0,0.0,0.0,0.0,0.0,0.0,0.0,0.0,0.0,0.0,0.0,0.0,0.0,0.0,0.0,0.0,0.0,0.0,0.0,0.0,0.0,0.0,0.0,0.0,0.0,0.0,0.0,0.0,0.0,0.0,0.0,0.0,0.0,0.0,0.0,0.0,0.0,0.0,0.0,0.0,0.0,0.0,0.0,0.0
1557407118018333308,100,1557407118018333308,map,,8.30111853965,-2.72004584689,-14.935,0.0,0.0,0.0,1.0,18.679684,1.7763568394e-15,0.0,0.0,0.0,0.0,-1.7763568394e-15,18.679684,0.0,0.0,0.0,0.0,0.0,0.0,63.5209,0.0,0.0,0.0,0.0,0.0,0.0,0.0,0.0,0.0,0.0,0.0,0.0,0.0,0.0,0.0,0.0,0.0,0.0,0.0,0.0,0.0,0.0,0.0,0.0,0.0,0.0,0.0,0.0,0.0,0.0,0.0,0.0,0.0,0.0,0.0,0.0,0.0,0.0,0.0,0.0,0.0,0.0,0.0,0.0,0.0,0.0,0.0,0.0,0.0,0.0,0.0,0.0,0.0,0.0,0.0,0.0,0.0,0.0,0.0,0.0,0.0,0.0,0.0
1557407119017442385,101,1557407119017442385,map,,8.29756409302,-2.72483145725,-14.916,0.0,0.0,0.0,1.0,18.558864,1.7763568394e-15,0.0,0.0,0.0,0.0,-1.7763568394e-15,18.558864,0.0,0.0,0.0,0.0,0.0,0.0,62.678889,0.0,0.0,0.0,0.0,0.0,0.0,0.0,0.0,0.0,0.0,0.0,0.0,0.0,0.0,0.0,0.0,0.0,0.0,0.0,0.0,0.0,0.0,0.0,0.0,0.0,0.0,0.0,0.0,0.0,0.0,0.0,0.0,0.0,0.0,0.0,0.0,0.0,0.0,0.0,0.0,0.0,0.0,0.0,0.0,0.0,0.0,0.0,0.0,0.0,0.0,0.0,0.0,0.0,0.0,0.0,0.0,0.0,0.0,0.0,0.0,0.0,0.0,0.0
1557407120018041877,102,1557407120018041877,map,,8.24597006105,-2.77561822534,-14.918,0.0,0.0,0.0,1.0,18.464209,0.0,0.0,0.0,0.0,0.0,0.0,18.464209,0.0,0.0,0.0,0.0,0.0,0.0,61.873956,0.0,0.0,0.0,0.0,0.0,0.0,0.0,0.0,0.0,0.0,0.0,0.0,0.0,0.0,0.0,0.0,0.0,0.0,0.0,0.0,0.0,0.0,0.0,0.0,0.0,0.0,0.0,0.0,0.0,0.0,0.0,0.0,0.0,0.0,0.0,0.0,0.0,0.0,0.0,0.0,0.0,0.0,0.0,0.0,0.0,0.0,0.0,0.0,0.0,0.0,0.0,0.0,0.0,0.0,0.0,0.0,0.0,0.0,0.0,0.0,0.0,0.0,0.0
1557407121018249493,103,1557407121018249493,map,,8.16227691248,-2.83226632047,-14.85,0.0,0.0,0.0,1.0,18.378369,-1.7763568394e-15,0.0,0.0,0.0,0.0,1.7763568394e-15,18.378369,0.0,0.0,0.0,0.0,0.0,0.0,61.230625,0.0,0.0,0.0,0.0,0.0,0.0,0.0,0.0,0.0,0.0,0.0,0.0,0.0,0.0,0.0,0.0,0.0,0.0,0.0,0.0,0.0,0.0,0.0,0.0,0.0,0.0,0.0,0.0,0.0,0.0,0.0,0.0,0.0,0.0,0.0,0.0,0.0,0.0,0.0,0.0,0.0,0.0,0.0,0.0,0.0,0.0,0.0,0.0,0.0,0.0,0.0,0.0,0.0,0.0,0.0,0.0,0.0,0.0,0.0,0.0,0.0,0.0,0.0
1557407122017135095,104,1557407122017135095,map,,8.09980136529,-2.82299159281,-14.832,0.0,0.0,0.0,1.0,18.326961,0.0,0.0,0.0,0.0,0.0,0.0,18.326961,0.0,0.0,0.0,0.0,0.0,0.0,60.746436,0.0,0.0,0.0,0.0,0.0,0.0,0.0,0.0,0.0,0.0,0.0,0.0,0.0,0.0,0.0,0.0,0.0,0.0,0.0,0.0,0.0,0.0,0.0,0.0,0.0,0.0,0.0,0.0,0.0,0.0,0.0,0.0,0.0,0.0,0.0,0.0,0.0,0.0,0.0,0.0,0.0,0.0,0.0,0.0,0.0,0.0,0.0,0.0,0.0,0.0,0.0,0.0,0.0,0.0,0.0,0.0,0.0,0.0,0.0,0.0,0.0,0.0,0.0
1557407123017231291,105,1557407123017231291,map,,7.99617695529,-2.77572847623,-14.709,0.0,0.0,0.0,1.0,18.258529,1.7763568394e-15,0.0,0.0,0.0,0.0,-1.7763568394e-15,18.258529,0.0,0.0,0.0,0.0,0.0,0.0,60.279696,0.0,0.0,0.0,0.0,0.0,0.0,0.0,0.0,0.0,0.0,0.0,0.0,0.0,0.0,0.0,0.0,0.0,0.0,0.0,0.0,0.0,0.0,0.0,0.0,0.0,0.0,0.0,0.0,0.0,0.0,0.0,0.0,0.0,0.0,0.0,0.0,0.0,0.0,0.0,0.0,0.0,0.0,0.0,0.0,0.0,0.0,0.0,0.0,0.0,0.0,0.0,0.0,0.0,0.0,0.0,0.0,0.0,0.0,0.0,0.0,0.0,0.0,0.0
1557407124018109352,106,1557407124018109352,map,,7.89610699285,-2.72367974836,-14.543,0.0,0.0,0.0,1.0,18.198756,1.7763568394e-15,0.0,0.0,0.0,0.0,-1.7763568394e-15,18.198756,0.0,0.0,0.0,0.0,0.0,0.0,59.892121,0.0,0.0,0.0,0.0,0.0,0.0,0.0,0.0,0.0,0.0,0.0,0.0,0.0,0.0,0.0,0.0,0.0,0.0,0.0,0.0,0.0,0.0,0.0,0.0,0.0,0.0,0.0,0.0,0.0,0.0,0.0,0.0,0.0,0.0,0.0,0.0,0.0,0.0,0.0,0.0,0.0,0.0,0.0,0.0,0.0,0.0,0.0,0.0,0.0,0.0,0.0,0.0,0.0,0.0,0.0,0.0,0.0,0.0,0.0,0.0,0.0,0.0,0.0
1557407125018113450,107,1557407125018113450,map,,7.79970056191,-2.70405457821,-14.239,0.0,0.0,0.0,1.0,18.173169,0.0,0.0,0.0,0.0,0.0,0.0,18.173169,0.0,0.0,0.0,0.0,0.0,0.0,59.691076,0.0,0.0,0.0,0.0,0.0,0.0,0.0,0.0,0.0,0.0,0.0,0.0,0.0,0.0,0.0,0.0,0.0,0.0,0.0,0.0,0.0,0.0,0.0,0.0,0.0,0.0,0.0,0.0,0.0,0.0,0.0,0.0,0.0,0.0,0.0,0.0,0.0,0.0,0.0,0.0,0.0,0.0,0.0,0.0,0.0,0.0,0.0,0.0,0.0,0.0,0.0,0.0,0.0,0.0,0.0,0.0,0.0,0.0,0.0,0.0,0.0,0.0,0.0
1557407126017867593,108,1557407126017867593,map,,7.74228397384,-2.59457852226,-13.819,0.0,0.0,0.0,1.0,18.130564,0.0,0.0,0.0,0.0,0.0,0.0,18.130564,0.0,0.0,0.0,0.0,0.0,0.0,59.521225,0.0,0.0,0.0,0.0,0.0,0.0,0.0,0.0,0.0,0.0,0.0,0.0,0.0,0.0,0.0,0.0,0.0,0.0,0.0,0.0,0.0,0.0,0.0,0.0,0.0,0.0,0.0,0.0,0.0,0.0,0.0,0.0,0.0,0.0,0.0,0.0,0.0,0.0,0.0,0.0,0.0,0.0,0.0,0.0,0.0,0.0,0.0,0.0,0.0,0.0,0.0,0.0,0.0,0.0,0.0,0.0,0.0,0.0,0.0,0.0,0.0,0.0,0.0
1557407127018419464,109,1557407127018419464,map,,7.72235271707,-2.4906672975,-13.338,0.0,0.0,0.0,1.0,18.079504,0.0,0.0,0.0,0.0,0.0,0.0,18.079504,0.0,0.0,0.0,0.0,0.0,0.0,59.397849,0.0,0.0,0.0,0.0,0.0,0.0,0.0,0.0,0.0,0.0,0.0,0.0,0.0,0.0,0.0,0.0,0.0,0.0,0.0,0.0,0.0,0.0,0.0,0.0,0.0,0.0,0.0,0.0,0.0,0.0,0.0,0.0,0.0,0.0,0.0,0.0,0.0,0.0,0.0,0.0,0.0,0.0,0.0,0.0,0.0,0.0,0.0,0.0,0.0,0.0,0.0,0.0,0.0,0.0,0.0,0.0,0.0,0.0,0.0,0.0,0.0,0.0,0.0
1557407128018065843,110,1557407128018065843,map,,7.78450101987,-2.38831452187,-12.909,0.0,0.0,0.0,1.0,18.028516,0.0,0.0,0.0,0.0,0.0,0.0,18.028516,0.0,0.0,0.0,0.0,0.0,0.0,59.351616,0.0,0.0,0.0,0.0,0.0,0.0,0.0,0.0,0.0,0.0,0.0,0.0,0.0,0.0,0.0,0.0,0.0,0.0,0.0,0.0,0.0,0.0,0.0,0.0,0.0,0.0,0.0,0.0,0.0,0.0,0.0,0.0,0.0,0.0,0.0,0.0,0.0,0.0,0.0,0.0,0.0,0.0,0.0,0.0,0.0,0.0,0.0,0.0,0.0,0.0,0.0,0.0,0.0,0.0,0.0,0.0,0.0,0.0,0.0,0.0,0.0,0.0,0.0
1557407129018206394,111,1557407129018206394,map,,7.8608671166,-2.26681930386,-12.455,0.0,0.0,0.0,1.0,17.960644,0.0,0.0,0.0,0.0,0.0,0.0,17.960644,0.0,0.0,0.0,0.0,0.0,0.0,59.274601,0.0,0.0,0.0,0.0,0.0,0.0,0.0,0.0,0.0,0.0,0.0,0.0,0.0,0.0,0.0,0.0,0.0,0.0,0.0,0.0,0.0,0.0,0.0,0.0,0.0,0.0,0.0,0.0,0.0,0.0,0.0,0.0,0.0,0.0,0.0,0.0,0.0,0.0,0.0,0.0,0.0,0.0,0.0,0.0,0.0,0.0,0.0,0.0,0.0,0.0,0.0,0.0,0.0,0.0,0.0,0.0,0.0,0.0,0.0,0.0,0.0,0.0,0.0
1557407130017894489,112,1557407130017894489,map,,8.01737193298,-2.09346160106,-11.928,0.0,0.0,0.0,1.0,17.8929,-1.7763568394e-15,0.0,0.0,0.0,0.0,1.7763568394e-15,17.8929,0.0,0.0,0.0,0.0,0.0,0.0,59.197636,0.0,0.0,0.0,0.0,0.0,0.0,0.0,0.0,0.0,0.0,0.0,0.0,0.0,0.0,0.0,0.0,0.0,0.0,0.0,0.0,0.0,0.0,0.0,0.0,0.0,0.0,0.0,0.0,0.0,0.0,0.0,0.0,0.0,0.0,0.0,0.0,0.0,0.0,0.0,0.0,0.0,0.0,0.0,0.0,0.0,0.0,0.0,0.0,0.0,0.0,0.0,0.0,0.0,0.0,0.0,0.0,0.0,0.0,0.0,0.0,0.0,0.0,0.0
1557407131019142250,113,1557407131019142250,map,,8.01715377532,-2.01904326677,-11.415,0.0,0.0,0.0,1.0,17.842176,0.0,0.0,0.0,0.0,0.0,0.0,17.842176,0.0,0.0,0.0,0.0,0.0,0.0,59.089969,0.0,0.0,0.0,0.0,0.0,0.0,0.0,0.0,0.0,0.0,0.0,0.0,0.0,0.0,0.0,0.0,0.0,0.0,0.0,0.0,0.0,0.0,0.0,0.0,0.0,0.0,0.0,0.0,0.0,0.0,0.0,0.0,0.0,0.0,0.0,0.0,0.0,0.0,0.0,0.0,0.0,0.0,0.0,0.0,0.0,0.0,0.0,0.0,0.0,0.0,0.0,0.0,0.0,0.0,0.0,0.0,0.0,0.0,0.0,0.0,0.0,0.0,0.0
1557407132018047134,114,1557407132018047134,map,,8.10795583855,-1.95282394998,-10.759,0.0,0.0,0.0,1.0,17.816841,0.0,0.0,0.0,0.0,0.0,0.0,17.816841,0.0,0.0,0.0,0.0,0.0,0.0,58.967041,0.0,0.0,0.0,0.0,0.0,0.0,0.0,0.0,0.0,0.0,0.0,0.0,0.0,0.0,0.0,0.0,0.0,0.0,0.0,0.0,0.0,0.0,0.0,0.0,0.0,0.0,0.0,0.0,0.0,0.0,0.0,0.0,0.0,0.0,0.0,0.0,0.0,0.0,0.0,0.0,0.0,0.0,0.0,0.0,0.0,0.0,0.0,0.0,0.0,0.0,0.0,0.0,0.0,0.0,0.0,0.0,0.0,0.0,0.0,0.0,0.0,0.0,0.0
1557407133017887026,115,1557407133017887026,map,,8.20231234841,-1.88181902561,-10.201,0.0,0.0,0.0,1.0,17.783089,0.0,0.0,0.0,0.0,0.0,0.0,17.783089,0.0,0.0,0.0,0.0,0.0,0.0,58.859584,0.0,0.0,0.0,0.0,0.0,0.0,0.0,0.0,0.0,0.0,0.0,0.0,0.0,0.0,0.0,0.0,0.0,0.0,0.0,0.0,0.0,0.0,0.0,0.0,0.0,0.0,0.0,0.0,0.0,0.0,0.0,0.0,0.0,0.0,0.0,0.0,0.0,0.0,0.0,0.0,0.0,0.0,0.0,0.0,0.0,0.0,0.0,0.0,0.0,0.0,0.0,0.0,0.0,0.0,0.0,0.0,0.0,0.0,0.0,0.0,0.0,0.0,0.0
1557407134017405439,116,1557407134017405439,map,,8.27534216549,-1.83952776622,-9.792,0.0,0.0,0.0,1.0,17.766225,-1.7763568394e-15,0.0,0.0,0.0,0.0,1.7763568394e-15,17.766225,0.0,0.0,0.0,0.0,0.0,0.0,58.736896,0.0,0.0,0.0,0.0,0.0,0.0,0.0,0.0,0.0,0.0,0.0,0.0,0.0,0.0,0.0,0.0,0.0,0.0,0.0,0.0,0.0,0.0,0.0,0.0,0.0,0.0,0.0,0.0,0.0,0.0,0.0,0.0,0.0,0.0,0.0,0.0,0.0,0.0,0.0,0.0,0.0,0.0,0.0,0.0,0.0,0.0,0.0,0.0,0.0,0.0,0.0,0.0,0.0,0.0,0.0,0.0,0.0,0.0,0.0,0.0,0.0,0.0,0.0
1557407135017441703,117,1557407135017441703,map,,8.34492661059,-1.83923128434,-9.365,0.0,0.0,0.0,1.0,17.774656,-1.7763568394e-15,0.0,0.0,0.0,0.0,1.7763568394e-15,17.774656,0.0,0.0,0.0,0.0,0.0,0.0,58.644964,0.0,0.0,0.0,0.0,0.0,0.0,0.0,0.0,0.0,0.0,0.0,0.0,0.0,0.0,0.0,0.0,0.0,0.0,0.0,0.0,0.0,0.0,0.0,0.0,0.0,0.0,0.0,0.0,0.0,0.0,0.0,0.0,0.0,0.0,0.0,0.0,0.0,0.0,0.0,0.0,0.0,0.0,0.0,0.0,0.0,0.0,0.0,0.0,0.0,0.0,0.0,0.0,0.0,0.0,0.0,0.0,0.0,0.0,0.0,0.0,0.0,0.0,0.0
1557407136017148813,118,1557407136017148813,map,,8.23537062947,-1.59449614119,-9.374,0.0,0.0,0.0,1.0,17.918289,0.0,0.0,0.0,0.0,0.0,0.0,17.918289,0.0,0.0,0.0,0.0,0.0,0.0,58.844241,0.0,0.0,0.0,0.0,0.0,0.0,0.0,0.0,0.0,0.0,0.0,0.0,0.0,0.0,0.0,0.0,0.0,0.0,0.0,0.0,0.0,0.0,0.0,0.0,0.0,0.0,0.0,0.0,0.0,0.0,0.0,0.0,0.0,0.0,0.0,0.0,0.0,0.0,0.0,0.0,0.0,0.0,0.0,0.0,0.0,0.0,0.0,0.0,0.0,0.0,0.0,0.0,0.0,0.0,0.0,0.0,0.0,0.0,0.0,0.0,0.0,0.0,0.0
1557407137017987559,119,1557407137017987559,map,,8.17956769373,-1.42681350652,-9.24,0.0,0.0,0.0,1.0,18.088009,-1.7763568394e-15,0.0,0.0,0.0,0.0,1.7763568394e-15,18.088009,0.0,0.0,0.0,0.0,0.0,0.0,59.059225,0.0,0.0,0.0,0.0,0.0,0.0,0.0,0.0,0.0,0.0,0.0,0.0,0.0,0.0,0.0,0.0,0.0,0.0,0.0,0.0,0.0,0.0,0.0,0.0,0.0,0.0,0.0,0.0,0.0,0.0,0.0,0.0,0.0,0.0,0.0,0.0,0.0,0.0,0.0,0.0,0.0,0.0,0.0,0.0,0.0,0.0,0.0,0.0,0.0,0.0,0.0,0.0,0.0,0.0,0.0,0.0,0.0,0.0,0.0,0.0,0.0,0.0,0.0
1557407138017837491,120,1557407138017837491,map,,8.13270542212,-1.26577142626,-9.166,0.0,0.0,0.0,1.0,18.267076,0.0,0.0,0.0,0.0,0.0,0.0,18.267076,0.0,0.0,0.0,0.0,0.0,0.0,59.274601,0.0,0.0,0.0,0.0,0.0,0.0,0.0,0.0,0.0,0.0,0.0,0.0,0.0,0.0,0.0,0.0,0.0,0.0,0.0,0.0,0.0,0.0,0.0,0.0,0.0,0.0,0.0,0.0,0.0,0.0,0.0,0.0,0.0,0.0,0.0,0.0,0.0,0.0,0.0,0.0,0.0,0.0,0.0,0.0,0.0,0.0,0.0,0.0,0.0,0.0,0.0,0.0,0.0,0.0,0.0,0.0,0.0,0.0,0.0,0.0,0.0,0.0,0.0
1557407139017450535,121,1557407139017450535,map,,8.10566530377,-1.17143141106,-8.991,0.0,0.0,0.0,1.0,18.438436,0.0,0.0,0.0,0.0,0.0,0.0,18.438436,0.0,0.0,0.0,0.0,0.0,0.0,59.490369,0.0,0.0,0.0,0.0,0.0,0.0,0.0,0.0,0.0,0.0,0.0,0.0,0.0,0.0,0.0,0.0,0.0,0.0,0.0,0.0,0.0,0.0,0.0,0.0,0.0,0.0,0.0,0.0,0.0,0.0,0.0,0.0,0.0,0.0,0.0,0.0,0.0,0.0,0.0,0.0,0.0,0.0,0.0,0.0,0.0,0.0,0.0,0.0,0.0,0.0,0.0,0.0,0.0,0.0,0.0,0.0,0.0,0.0,0.0,0.0,0.0,0.0,0.0
1557407140017764291,122,1557407140017764291,map,,8.17514067981,-1.13392576203,-8.688,0.0,0.0,0.0,1.0,18.610596,0.0,0.0,0.0,0.0,0.0,0.0,18.610596,0.0,0.0,0.0,0.0,0.0,0.0,59.706529,0.0,0.0,0.0,0.0,0.0,0.0,0.0,0.0,0.0,0.0,0.0,0.0,0.0,0.0,0.0,0.0,0.0,0.0,0.0,0.0,0.0,0.0,0.0,0.0,0.0,0.0,0.0,0.0,0.0,0.0,0.0,0.0,0.0,0.0,0.0,0.0,0.0,0.0,0.0,0.0,0.0,0.0,0.0,0.0,0.0,0.0,0.0,0.0,0.0,0.0,0.0,0.0,0.0,0.0,0.0,0.0,0.0,0.0,0.0,0.0,0.0,0.0,0.0
1557407141017465502,123,1557407141017465502,map,,8.0975747956,-0.846120096743,-8.844,0.0,0.0,0.0,1.0,18.852964,0.0,0.0,0.0,0.0,0.0,0.0,18.852964,0.0,0.0,0.0,0.0,0.0,0.0,60.171049,0.0,0.0,0.0,0.0,0.0,0.0,0.0,0.0,0.0,0.0,0.0,0.0,0.0,0.0,0.0,0.0,0.0,0.0,0.0,0.0,0.0,0.0,0.0,0.0,0.0,0.0,0.0,0.0,0.0,0.0,0.0,0.0,0.0,0.0,0.0,0.0,0.0,0.0,0.0,0.0,0.0,0.0,0.0,0.0,0.0,0.0,0.0,0.0,0.0,0.0,0.0,0.0,0.0,0.0,0.0,0.0,0.0,0.0,0.0,0.0,0.0,0.0,0.0
1557407142018406462,124,1557407142018406462,map,,8.07570276689,-0.688787902705,-8.806,0.0,0.0,0.0,1.0,19.149376,1.7763568394e-15,0.0,0.0,0.0,0.0,-1.7763568394e-15,19.149376,0.0,0.0,0.0,0.0,0.0,0.0,60.715264,0.0,0.0,0.0,0.0,0.0,0.0,0.0,0.0,0.0,0.0,0.0,0.0,0.0,0.0,0.0,0.0,0.0,0.0,0.0,0.0,0.0,0.0,0.0,0.0,0.0,0.0,0.0,0.0,0.0,0.0,0.0,0.0,0.0,0.0,0.0,0.0,0.0,0.0,0.0,0.0,0.0,0.0,0.0,0.0,0.0,0.0,0.0,0.0,0.0,0.0,0.0,0.0,0.0,0.0,0.0,0.0,0.0,0.0,0.0,0.0,0.0,0.0,0.0
1557407143017725872,125,1557407143017725872,map,,8.09864309989,-0.601867678575,-8.662,0.0,0.0,0.0,1.0,19.509889,-1.7763568394e-15,0.0,0.0,0.0,0.0,1.7763568394e-15,19.509889,0.0,0.0,0.0,0.0,0.0,0.0,61.340224,0.0,0.0,0.0,0.0,0.0,0.0,0.0,0.0,0.0,0.0,0.0,0.0,0.0,0.0,0.0,0.0,0.0,0.0,0.0,0.0,0.0,0.0,0.0,0.0,0.0,0.0,0.0,0.0,0.0,0.0,0.0,0.0,0.0,0.0,0.0,0.0,0.0,0.0,0.0,0.0,0.0,0.0,0.0,0.0,0.0,0.0,0.0,0.0,0.0,0.0,0.0,0.0,0.0,0.0,0.0,0.0,0.0,0.0,0.0,0.0,0.0,0.0,0.0
1557407144017600916,126,1557407144017600916,map,,8.07009842992,-0.602943388745,-8.488,0.0,0.0,0.0,1.0,19.882681,0.0,0.0,0.0,0.0,0.0,0.0,19.882681,0.0,0.0,0.0,0.0,0.0,0.0,61.952641,0.0,0.0,0.0,0.0,0.0,0.0,0.0,0.0,0.0,0.0,0.0,0.0,0.0,0.0,0.0,0.0,0.0,0.0,0.0,0.0,0.0,0.0,0.0,0.0,0.0,0.0,0.0,0.0,0.0,0.0,0.0,0.0,0.0,0.0,0.0,0.0,0.0,0.0,0.0,0.0,0.0,0.0,0.0,0.0,0.0,0.0,0.0,0.0,0.0,0.0,0.0,0.0,0.0,0.0,0.0,0.0,0.0,0.0,0.0,0.0,0.0,0.0,0.0
1557407145016754877,127,1557407145016754877,map,,8.09702946991,-0.660074240528,-8.231,0.0,0.0,0.0,1.0,20.241001,0.0,0.0,0.0,0.0,0.0,0.0,20.241001,0.0,0.0,0.0,0.0,0.0,0.0,62.552281,0.0,0.0,0.0,0.0,0.0,0.0,0.0,0.0,0.0,0.0,0.0,0.0,0.0,0.0,0.0,0.0,0.0,0.0,0.0,0.0,0.0,0.0,0.0,0.0,0.0,0.0,0.0,0.0,0.0,0.0,0.0,0.0,0.0,0.0,0.0,0.0,0.0,0.0,0.0,0.0,0.0,0.0,0.0,0.0,0.0,0.0,0.0,0.0,0.0,0.0,0.0,0.0,0.0,0.0,0.0,0.0,0.0,0.0,0.0,0.0,0.0,0.0,0.0
1557407146017180592,128,1557407146017180592,map,,7.92177074123,-0.522477432154,-8.427,0.0,0.0,0.0,1.0,20.720704,0.0,0.0,0.0,0.0,0.0,0.0,20.720704,0.0,0.0,0.0,0.0,0.0,0.0,63.377521,0.0,0.0,0.0,0.0,0.0,0.0,0.0,0.0,0.0,0.0,0.0,0.0,0.0,0.0,0.0,0.0,0.0,0.0,0.0,0.0,0.0,0.0,0.0,0.0,0.0,0.0,0.0,0.0,0.0,0.0,0.0,0.0,0.0,0.0,0.0,0.0,0.0,0.0,0.0,0.0,0.0,0.0,0.0,0.0,0.0,0.0,0.0,0.0,0.0,0.0,0.0,0.0,0.0,0.0,0.0,0.0,0.0,0.0,0.0,0.0,0.0,0.0,0.0
1557407147016896266,129,1557407147016896266,map,,7.75955243874,-0.572781445459,-8.29,0.0,0.0,0.0,1.0,21.16,1.7763568394e-15,0.0,0.0,0.0,0.0,-1.7763568394e-15,21.16,0.0,0.0,0.0,0.0,0.0,0.0,64.144081,0.0,0.0,0.0,0.0,0.0,0.0,0.0,0.0,0.0,0.0,0.0,0.0,0.0,0.0,0.0,0.0,0.0,0.0,0.0,0.0,0.0,0.0,0.0,0.0,0.0,0.0,0.0,0.0,0.0,0.0,0.0,0.0,0.0,0.0,0.0,0.0,0.0,0.0,0.0,0.0,0.0,0.0,0.0,0.0,0.0,0.0,0.0,0.0,0.0,0.0,0.0,0.0,0.0,0.0,0.0,0.0,0.0,0.0,0.0,0.0,0.0,0.0,0.0
1557407148017312010,130,1557407148017312010,map,,7.68113639206,-0.603646539152,-8.195,0.0,0.0,0.0,1.0,21.594609,1.7763568394e-15,0.0,0.0,0.0,0.0,-1.7763568394e-15,21.594609,0.0,0.0,0.0,0.0,0.0,0.0,64.915249,0.0,0.0,0.0,0.0,0.0,0.0,0.0,0.0,0.0,0.0,0.0,0.0,0.0,0.0,0.0,0.0,0.0,0.0,0.0,0.0,0.0,0.0,0.0,0.0,0.0,0.0,0.0,0.0,0.0,0.0,0.0,0.0,0.0,0.0,0.0,0.0,0.0,0.0,0.0,0.0,0.0,0.0,0.0,0.0,0.0,0.0,0.0,0.0,0.0,0.0,0.0,0.0,0.0,0.0,0.0,0.0,0.0,0.0,0.0,0.0,0.0,0.0,0.0
1557407149016808308,131,1557407149016808308,map,,7.65819605906,-0.690566772595,-7.966,0.0,0.0,0.0,1.0,22.014864,0.0,0.0,0.0,0.0,0.0,0.0,22.014864,0.0,0.0,0.0,0.0,0.0,0.0,65.674816,0.0,0.0,0.0,0.0,0.0,0.0,0.0,0.0,0.0,0.0,0.0,0.0,0.0,0.0,0.0,0.0,0.0,0.0,0.0,0.0,0.0,0.0,0.0,0.0,0.0,0.0,0.0,0.0,0.0,0.0,0.0,0.0,0.0,0.0,0.0,0.0,0.0,0.0,0.0,0.0,0.0,0.0,0.0,0.0,0.0,0.0,0.0,0.0,0.0,0.0,0.0,0.0,0.0,0.0,0.0,0.0,0.0,0.0,0.0,0.0,0.0,0.0,0.0
1557407150017454660,132,1557407150017454660,map,,7.69084050786,-0.870751312003,-7.601,0.0,0.0,0.0,1.0,22.155849,0.0,0.0,0.0,0.0,0.0,0.0,22.155849,0.0,0.0,0.0,0.0,0.0,0.0,66.080641,0.0,0.0,0.0,0.0,0.0,0.0,0.0,0.0,0.0,0.0,0.0,0.0,0.0,0.0,0.0,0.0,0.0,0.0,0.0,0.0,0.0,0.0,0.0,0.0,0.0,0.0,0.0,0.0,0.0,0.0,0.0,0.0,0.0,0.0,0.0,0.0,0.0,0.0,0.0,0.0,0.0,0.0,0.0,0.0,0.0,0.0,0.0,0.0,0.0,0.0,0.0,0.0,0.0,0.0,0.0,0.0,0.0,0.0,0.0,0.0,0.0,0.0,0.0
1557407151016991079,133,1557407151016991079,map,,7.75213870872,-1.08706930373,-7.08,0.0,0.0,0.0,1.0,22.259524,0.0,0.0,0.0,0.0,0.0,0.0,22.259524,0.0,0.0,0.0,0.0,0.0,0.0,66.471409,0.0,0.0,0.0,0.0,0.0,0.0,0.0,0.0,0.0,0.0,0.0,0.0,0.0,0.0,0.0,0.0,0.0,0.0,0.0,0.0,0.0,0.0,0.0,0.0,0.0,0.0,0.0,0.0,0.0,0.0,0.0,0.0,0.0,0.0,0.0,0.0,0.0,0.0,0.0,0.0,0.0,0.0,0.0,0.0,0.0,0.0,0.0,0.0,0.0,0.0,0.0,0.0,0.0,0.0,0.0,0.0,0.0,0.0,0.0,0.0,0.0,0.0,0.0
1557407152016750917,134,1557407152016750917,map,,7.81515960675,-1.28238989972,-6.661,0.0,0.0,0.0,1.0,22.231225,0.0,0.0,0.0,0.0,0.0,0.0,22.231225,0.0,0.0,0.0,0.0,0.0,0.0,66.569281,0.0,0.0,0.0,0.0,0.0,0.0,0.0,0.0,0.0,0.0,0.0,0.0,0.0,0.0,0.0,0.0,0.0,0.0,0.0,0.0,0.0,0.0,0.0,0.0,0.0,0.0,0.0,0.0,0.0,0.0,0.0,0.0,0.0,0.0,0.0,0.0,0.0,0.0,0.0,0.0,0.0,0.0,0.0,0.0,0.0,0.0,0.0,0.0,0.0,0.0,0.0,0.0,0.0,0.0,0.0,0.0,0.0,0.0,0.0,0.0,0.0,0.0,0.0
1557407153017148609,135,1557407153017148609,map,,7.85835836176,-1.41100842226,-6.308,0.0,0.0,0.0,1.0,22.202944,0.0,0.0,0.0,0.0,0.0,0.0,22.202944,0.0,0.0,0.0,0.0,0.0,0.0,66.683556,0.0,0.0,0.0,0.0,0.0,0.0,0.0,0.0,0.0,0.0,0.0,0.0,0.0,0.0,0.0,0.0,0.0,0.0,0.0,0.0,0.0,0.0,0.0,0.0,0.0,0.0,0.0,0.0,0.0,0.0,0.0,0.0,0.0,0.0,0.0,0.0,0.0,0.0,0.0,0.0,0.0,0.0,0.0,0.0,0.0,0.0,0.0,0.0,0.0,0.0,0.0,0.0,0.0,0.0,0.0,0.0,0.0,0.0,0.0,0.0,0.0,0.0,0.0
1557407154018591523,136,1557407154018591523,map,,7.96026007365,-1.47926895134,-6.044,0.0,0.0,0.0,1.0,22.1841,0.0,0.0,0.0,0.0,0.0,0.0,22.1841,0.0,0.0,0.0,0.0,0.0,0.0,66.7489,0.0,0.0,0.0,0.0,0.0,0.0,0.0,0.0,0.0,0.0,0.0,0.0,0.0,0.0,0.0,0.0,0.0,0.0,0.0,0.0,0.0,0.0,0.0,0.0,0.0,0.0,0.0,0.0,0.0,0.0,0.0,0.0,0.0,0.0,0.0,0.0,0.0,0.0,0.0,0.0,0.0,0.0,0.0,0.0,0.0,0.0,0.0,0.0,0.0,0.0,0.0,0.0,0.0,0.0,0.0,0.0,0.0,0.0,0.0,0.0,0.0,0.0,0.0
1557407155018671804,137,1557407155018671804,map,,8.04083508905,-1.57624314446,-5.772,0.0,0.0,0.0,1.0,22.174681,1.7763568394e-15,0.0,0.0,0.0,0.0,-1.7763568394e-15,22.174681,0.0,0.0,0.0,0.0,0.0,0.0,66.879684,0.0,0.0,0.0,0.0,0.0,0.0,0.0,0.0,0.0,0.0,0.0,0.0,0.0,0.0,0.0,0.0,0.0,0.0,0.0,0.0,0.0,0.0,0.0,0.0,0.0,0.0,0.0,0.0,0.0,0.0,0.0,0.0,0.0,0.0,0.0,0.0,0.0,0.0,0.0,0.0,0.0,0.0,0.0,0.0,0.0,0.0,0.0,0.0,0.0,0.0,0.0,0.0,0.0,0.0,0.0,0.0,0.0,0.0,0.0,0.0,0.0,0.0,0.0
1557407156018134772,138,1557407156018134772,map,,8.09641988389,-1.66950744018,-5.531,0.0,0.0,0.0,1.0,22.155849,0.0,0.0,0.0,0.0,0.0,0.0,22.155849,0.0,0.0,0.0,0.0,0.0,0.0,66.994225,0.0,0.0,0.0,0.0,0.0,0.0,0.0,0.0,0.0,0.0,0.0,0.0,0.0,0.0,0.0,0.0,0.0,0.0,0.0,0.0,0.0,0.0,0.0,0.0,0.0,0.0,0.0,0.0,0.0,0.0,0.0,0.0,0.0,0.0,0.0,0.0,0.0,0.0,0.0,0.0,0.0,0.0,0.0,0.0,0.0,0.0,0.0,0.0,0.0,0.0,0.0,0.0,0.0,0.0,0.0,0.0,0.0,0.0,0.0,0.0,0.0,0.0,0.0
1557407157017661025,139,1557407157017661025,map,,8.15189560782,-1.72556256503,-5.469,0.0,0.0,0.0,1.0,22.118209,0.0,0.0,0.0,0.0,0.0,0.0,22.118209,0.0,0.0,0.0,0.0,0.0,0.0,67.010596,0.0,0.0,0.0,0.0,0.0,0.0,0.0,0.0,0.0,0.0,0.0,0.0,0.0,0.0,0.0,0.0,0.0,0.0,0.0,0.0,0.0,0.0,0.0,0.0,0.0,0.0,0.0,0.0,0.0,0.0,0.0,0.0,0.0,0.0,0.0,0.0,0.0,0.0,0.0,0.0,0.0,0.0,0.0,0.0,0.0,0.0,0.0,0.0,0.0,0.0,0.0,0.0,0.0,0.0,0.0,0.0,0.0,0.0,0.0,0.0,0.0,0.0,0.0
1557407158018328750,140,1557407158018328750,map,,8.24830203503,-1.74518775847,-5.425,0.0,0.0,0.0,1.0,22.118209,0.0,0.0,0.0,0.0,0.0,0.0,22.118209,0.0,0.0,0.0,0.0,0.0,0.0,67.125249,0.0,0.0,0.0,0.0,0.0,0.0,0.0,0.0,0.0,0.0,0.0,0.0,0.0,0.0,0.0,0.0,0.0,0.0,0.0,0.0,0.0,0.0,0.0,0.0,0.0,0.0,0.0,0.0,0.0,0.0,0.0,0.0,0.0,0.0,0.0,0.0,0.0,0.0,0.0,0.0,0.0,0.0,0.0,0.0,0.0,0.0,0.0,0.0,0.0,0.0,0.0,0.0,0.0,0.0,0.0,0.0,0.0,0.0,0.0,0.0,0.0,0.0,0.0
1557407159018351164,141,1557407159018351164,map,,8.33716326673,-1.62554750312,-5.515,0.0,0.0,0.0,1.0,22.118209,0.0,0.0,0.0,0.0,0.0,0.0,22.118209,0.0,0.0,0.0,0.0,0.0,0.0,67.190809,0.0,0.0,0.0,0.0,0.0,0.0,0.0,0.0,0.0,0.0,0.0,0.0,0.0,0.0,0.0,0.0,0.0,0.0,0.0,0.0,0.0,0.0,0.0,0.0,0.0,0.0,0.0,0.0,0.0,0.0,0.0,0.0,0.0,0.0,0.0,0.0,0.0,0.0,0.0,0.0,0.0,0.0,0.0,0.0,0.0,0.0,0.0,0.0,0.0,0.0,0.0,0.0,0.0,0.0,0.0,0.0,0.0,0.0,0.0,0.0,0.0,0.0,0.0
1557407160018940082,142,1557407160018940082,map,,8.48461838439,-1.40834010486,-5.845,0.0,0.0,0.0,1.0,22.09,0.0,0.0,0.0,0.0,0.0,0.0,22.09,0.0,0.0,0.0,0.0,0.0,0.0,67.24,0.0,0.0,0.0,0.0,0.0,0.0,0.0,0.0,0.0,0.0,0.0,0.0,0.0,0.0,0.0,0.0,0.0,0.0,0.0,0.0,0.0,0.0,0.0,0.0,0.0,0.0,0.0,0.0,0.0,0.0,0.0,0.0,0.0,0.0,0.0,0.0,0.0,0.0,0.0,0.0,0.0,0.0,0.0,0.0,0.0,0.0,0.0,0.0,0.0,0.0,0.0,0.0,0.0,0.0,0.0,0.0,0.0,0.0,0.0,0.0,0.0,0.0,0.0
1557407161021173880,143,1557407161021173880,map,,8.61236044206,-1.16163981892,-6.189,0.0,0.0,0.0,1.0,22.09,0.0,0.0,0.0,0.0,0.0,0.0,22.09,0.0,0.0,0.0,0.0,0.0,0.0,67.305616,0.0,0.0,0.0,0.0,0.0,0.0,0.0,0.0,0.0,0.0,0.0,0.0,0.0,0.0,0.0,0.0,0.0,0.0,0.0,0.0,0.0,0.0,0.0,0.0,0.0,0.0,0.0,0.0,0.0,0.0,0.0,0.0,0.0,0.0,0.0,0.0,0.0,0.0,0.0,0.0,0.0,0.0,0.0,0.0,0.0,0.0,0.0,0.0,0.0,0.0,0.0,0.0,0.0,0.0,0.0,0.0,0.0,0.0,0.0,0.0,0.0,0.0,0.0
1557407162017519023,144,1557407162017519023,map,,8.69561735261,-0.956155073829,-6.473,0.0,0.0,0.0,1.0,22.108804,1.7763568394e-15,0.0,0.0,0.0,0.0,-1.7763568394e-15,22.108804,0.0,0.0,0.0,0.0,0.0,0.0,67.371264,0.0,0.0,0.0,0.0,0.0,0.0,0.0,0.0,0.0,0.0,0.0,0.0,0.0,0.0,0.0,0.0,0.0,0.0,0.0,0.0,0.0,0.0,0.0,0.0,0.0,0.0,0.0,0.0,0.0,0.0,0.0,0.0,0.0,0.0,0.0,0.0,0.0,0.0,0.0,0.0,0.0,0.0,0.0,0.0,0.0,0.0,0.0,0.0,0.0,0.0,0.0,0.0,0.0,0.0,0.0,0.0,0.0,0.0,0.0,0.0,0.0,0.0,0.0
1557407163016544843,145,1557407163016544843,map,,8.82174581196,-0.767661354505,-6.655,0.0,0.0,0.0,1.0,22.127616,0.0,0.0,0.0,0.0,0.0,0.0,22.127616,0.0,0.0,0.0,0.0,0.0,0.0,67.4041,0.0,0.0,0.0,0.0,0.0,0.0,0.0,0.0,0.0,0.0,0.0,0.0,0.0,0.0,0.0,0.0,0.0,0.0,0.0,0.0,0.0,0.0,0.0,0.0,0.0,0.0,0.0,0.0,0.0,0.0,0.0,0.0,0.0,0.0,0.0,0.0,0.0,0.0,0.0,0.0,0.0,0.0,0.0,0.0,0.0,0.0,0.0,0.0,0.0,0.0,0.0,0.0,0.0,0.0,0.0,0.0,0.0,0.0,0.0,0.0,0.0,0.0,0.0
1557407164017082874,146,1557407164017082874,map,,8.92493394576,-0.666087854654,-6.712,0.0,0.0,0.0,1.0,22.146436,1.7763568394e-15,0.0,0.0,0.0,0.0,-1.7763568394e-15,22.146436,0.0,0.0,0.0,0.0,0.0,0.0,67.486225,0.0,0.0,0.0,0.0,0.0,0.0,0.0,0.0,0.0,0.0,0.0,0.0,0.0,0.0,0.0,0.0,0.0,0.0,0.0,0.0,0.0,0.0,0.0,0.0,0.0,0.0,0.0,0.0,0.0,0.0,0.0,0.0,0.0,0.0,0.0,0.0,0.0,0.0,0.0,0.0,0.0,0.0,0.0,0.0,0.0,0.0,0.0,0.0,0.0,0.0,0.0,0.0,0.0,0.0,0.0,0.0,0.0,0.0,0.0,0.0,0.0,0.0,0.0
1557407165017013788,147,1557407165017013788,map,,9.01734966598,-0.541662016883,-6.806,0.0,0.0,0.0,1.0,22.193521,-1.7763568394e-15,0.0,0.0,0.0,0.0,1.7763568394e-15,22.193521,0.0,0.0,0.0,0.0,0.0,0.0,67.601284,0.0,0.0,0.0,0.0,0.0,0.0,0.0,0.0,0.0,0.0,0.0,0.0,0.0,0.0,0.0,0.0,0.0,0.0,0.0,0.0,0.0,0.0,0.0,0.0,0.0,0.0,0.0,0.0,0.0,0.0,0.0,0.0,0.0,0.0,0.0,0.0,0.0,0.0,0.0,0.0,0.0,0.0,0.0,0.0,0.0,0.0,0.0,0.0,0.0,0.0,0.0,0.0,0.0,0.0,0.0,0.0,0.0,0.0,0.0,0.0,0.0,0.0,0.0
1557407166017491334,148,1557407166017491334,map,,9.1310921004,-0.388522529975,-6.89,0.0,0.0,0.0,1.0,22.250089,1.7763568394e-15,0.0,0.0,0.0,0.0,-1.7763568394e-15,22.250089,0.0,0.0,0.0,0.0,0.0,0.0,67.765824,0.0,0.0,0.0,0.0,0.0,0.0,0.0,0.0,0.0,0.0,0.0,0.0,0.0,0.0,0.0,0.0,0.0,0.0,0.0,0.0,0.0,0.0,0.0,0.0,0.0,0.0,0.0,0.0,0.0,0.0,0.0,0.0,0.0,0.0,0.0,0.0,0.0,0.0,0.0,0.0,0.0,0.0,0.0,0.0,0.0,0.0,0.0,0.0,0.0,0.0,0.0,0.0,0.0,0.0,0.0,0.0,0.0,0.0,0.0,0.0,0.0,0.0,0.0
1557407167017574769,149,1557407167017574769,map,,9.29309227783,-0.263800248504,-6.812,0.0,0.0,0.0,1.0,22.316176,0.0,0.0,0.0,0.0,0.0,0.0,22.316176,0.0,0.0,0.0,0.0,0.0,0.0,68.013009,0.0,0.0,0.0,0.0,0.0,0.0,0.0,0.0,0.0,0.0,0.0,0.0,0.0,0.0,0.0,0.0,0.0,0.0,0.0,0.0,0.0,0.0,0.0,0.0,0.0,0.0,0.0,0.0,0.0,0.0,0.0,0.0,0.0,0.0,0.0,0.0,0.0,0.0,0.0,0.0,0.0,0.0,0.0,0.0,0.0,0.0,0.0,0.0,0.0,0.0,0.0,0.0,0.0,0.0,0.0,0.0,0.0,0.0,0.0,0.0,0.0,0.0,0.0
1557407168017707913,150,1557407168017707913,map,,9.39444867149,-0.146014988422,-6.779,0.0,0.0,0.0,1.0,22.515025,0.0,0.0,0.0,0.0,0.0,0.0,22.515025,0.0,0.0,0.0,0.0,0.0,0.0,68.608089,0.0,0.0,0.0,0.0,0.0,0.0,0.0,0.0,0.0,0.0,0.0,0.0,0.0,0.0,0.0,0.0,0.0,0.0,0.0,0.0,0.0,0.0,0.0,0.0,0.0,0.0,0.0,0.0,0.0,0.0,0.0,0.0,0.0,0.0,0.0,0.0,0.0,0.0,0.0,0.0,0.0,0.0,0.0,0.0,0.0,0.0,0.0,0.0,0.0,0.0,0.0,0.0,0.0,0.0,0.0,0.0,0.0,0.0,0.0,0.0,0.0,0.0,0.0
1557407169017508141,151,1557407169017508141,map,,9.49419142865,-0.0864362875,-6.585,0.0,0.0,0.0,1.0,22.600516,0.0,0.0,0.0,0.0,0.0,0.0,22.600516,0.0,0.0,0.0,0.0,0.0,0.0,68.840209,0.0,0.0,0.0,0.0,0.0,0.0,0.0,0.0,0.0,0.0,0.0,0.0,0.0,0.0,0.0,0.0,0.0,0.0,0.0,0.0,0.0,0.0,0.0,0.0,0.0,0.0,0.0,0.0,0.0,0.0,0.0,0.0,0.0,0.0,0.0,0.0,0.0,0.0,0.0,0.0,0.0,0.0,0.0,0.0,0.0,0.0,0.0,0.0,0.0,0.0,0.0,0.0,0.0,0.0,0.0,0.0,0.0,0.0,0.0,0.0,0.0,0.0,0.0
1557407170018240615,152,1557407170018240615,map,,9.64036016632,-0.0390630150214,-6.272,0.0,0.0,0.0,1.0,22.667121,0.0,0.0,0.0,0.0,0.0,0.0,22.667121,0.0,0.0,0.0,0.0,0.0,0.0,69.089344,0.0,0.0,0.0,0.0,0.0,0.0,0.0,0.0,0.0,0.0,0.0,0.0,0.0,0.0,0.0,0.0,0.0,0.0,0.0,0.0,0.0,0.0,0.0,0.0,0.0,0.0,0.0,0.0,0.0,0.0,0.0,0.0,0.0,0.0,0.0,0.0,0.0,0.0,0.0,0.0,0.0,0.0,0.0,0.0,0.0,0.0,0.0,0.0,0.0,0.0,0.0,0.0,0.0,0.0,0.0,0.0,0.0,0.0,0.0,0.0,0.0,0.0,0.0
1557407171017411645,153,1557407171017411645,map,,9.7792018922,0.0731573663652,-5.987,0.0,0.0,0.0,1.0,22.724289,0.0,0.0,0.0,0.0,0.0,0.0,22.724289,0.0,0.0,0.0,0.0,0.0,0.0,69.288976,0.0,0.0,0.0,0.0,0.0,0.0,0.0,0.0,0.0,0.0,0.0,0.0,0.0,0.0,0.0,0.0,0.0,0.0,0.0,0.0,0.0,0.0,0.0,0.0,0.0,0.0,0.0,0.0,0.0,0.0,0.0,0.0,0.0,0.0,0.0,0.0,0.0,0.0,0.0,0.0,0.0,0.0,0.0,0.0,0.0,0.0,0.0,0.0,0.0,0.0,0.0,0.0,0.0,0.0,0.0,0.0,0.0,0.0,0.0,0.0,0.0,0.0,0.0
1557407172017334614,154,1557407172017334614,map,,9.98418266512,0.143679400906,-5.505,0.0,0.0,0.0,1.0,22.800625,0.0,0.0,0.0,0.0,0.0,0.0,22.800625,0.0,0.0,0.0,0.0,0.0,0.0,69.522244,0.0,0.0,0.0,0.0,0.0,0.0,0.0,0.0,0.0,0.0,0.0,0.0,0.0,0.0,0.0,0.0,0.0,0.0,0.0,0.0,0.0,0.0,0.0,0.0,0.0,0.0,0.0,0.0,0.0,0.0,0.0,0.0,0.0,0.0,0.0,0.0,0.0,0.0,0.0,0.0,0.0,0.0,0.0,0.0,0.0,0.0,0.0,0.0,0.0,0.0,0.0,0.0,0.0,0.0,0.0,0.0,0.0,0.0,0.0,0.0,0.0,0.0,0.0
1557407173017294514,155,1557407173017294514,map,,10.1821635859,0.167421044782,-4.907,0.0,0.0,0.0,1.0,22.877089,1.7763568394e-15,0.0,0.0,0.0,0.0,-1.7763568394e-15,22.877089,0.0,0.0,0.0,0.0,0.0,0.0,69.739201,0.0,0.0,0.0,0.0,0.0,0.0,0.0,0.0,0.0,0.0,0.0,0.0,0.0,0.0,0.0,0.0,0.0,0.0,0.0,0.0,0.0,0.0,0.0,0.0,0.0,0.0,0.0,0.0,0.0,0.0,0.0,0.0,0.0,0.0,0.0,0.0,0.0,0.0,0.0,0.0,0.0,0.0,0.0,0.0,0.0,0.0,0.0,0.0,0.0,0.0,0.0,0.0,0.0,0.0,0.0,0.0,0.0,0.0,0.0,0.0,0.0,0.0,0.0
1557407174016930967,156,1557407174016930967,map,,10.3621541429,0.24165296834,-4.316,0.0,0.0,0.0,1.0,22.982436,0.0,0.0,0.0,0.0,0.0,0.0,22.982436,0.0,0.0,0.0,0.0,0.0,0.0,69.939769,0.0,0.0,0.0,0.0,0.0,0.0,0.0,0.0,0.0,0.0,0.0,0.0,0.0,0.0,0.0,0.0,0.0,0.0,0.0,0.0,0.0,0.0,0.0,0.0,0.0,0.0,0.0,0.0,0.0,0.0,0.0,0.0,0.0,0.0,0.0,0.0,0.0,0.0,0.0,0.0,0.0,0.0,0.0,0.0,0.0,0.0,0.0,0.0,0.0,0.0,0.0,0.0,0.0,0.0,0.0,0.0,0.0,0.0,0.0,0.0,0.0,0.0,0.0
1557407175017844378,157,1557407175017844378,map,,10.5438674018,0.336882266216,-3.697,0.0,0.0,0.0,1.0,23.030401,0.0,0.0,0.0,0.0,0.0,0.0,23.030401,0.0,0.0,0.0,0.0,0.0,0.0,69.605649,0.0,0.0,0.0,0.0,0.0,0.0,0.0,0.0,0.0,0.0,0.0,0.0,0.0,0.0,0.0,0.0,0.0,0.0,0.0,0.0,0.0,0.0,0.0,0.0,0.0,0.0,0.0,0.0,0.0,0.0,0.0,0.0,0.0,0.0,0.0,0.0,0.0,0.0,0.0,0.0,0.0,0.0,0.0,0.0,0.0,0.0,0.0,0.0,0.0,0.0,0.0,0.0,0.0,0.0,0.0,0.0,0.0,0.0,0.0,0.0,0.0,0.0,0.0
1557407176017802775,158,1557407176017802775,map,,10.6862635873,0.453888208605,-3.285,0.0,0.0,0.0,1.0,23.059204,0.0,0.0,0.0,0.0,0.0,0.0,23.059204,0.0,0.0,0.0,0.0,0.0,0.0,69.2224,0.0,0.0,0.0,0.0,0.0,0.0,0.0,0.0,0.0,0.0,0.0,0.0,0.0,0.0,0.0,0.0,0.0,0.0,0.0,0.0,0.0,0.0,0.0,0.0,0.0,0.0,0.0,0.0,0.0,0.0,0.0,0.0,0.0,0.0,0.0,0.0,0.0,0.0,0.0,0.0,0.0,0.0,0.0,0.0,0.0,0.0,0.0,0.0,0.0,0.0,0.0,0.0,0.0,0.0,0.0,0.0,0.0,0.0,0.0,0.0,0.0,0.0,0.0
1557407177017433081,159,1557407177017433081,map,,10.8268280318,0.587105918676,-2.846,0.0,0.0,0.0,1.0,23.078416,0.0,0.0,0.0,0.0,0.0,0.0,23.078416,0.0,0.0,0.0,0.0,0.0,0.0,68.790436,0.0,0.0,0.0,0.0,0.0,0.0,0.0,0.0,0.0,0.0,0.0,0.0,0.0,0.0,0.0,0.0,0.0,0.0,0.0,0.0,0.0,0.0,0.0,0.0,0.0,0.0,0.0,0.0,0.0,0.0,0.0,0.0,0.0,0.0,0.0,0.0,0.0,0.0,0.0,0.0,0.0,0.0,0.0,0.0,0.0,0.0,0.0,0.0,0.0,0.0,0.0,0.0,0.0,0.0,0.0,0.0,0.0,0.0,0.0,0.0,0.0,0.0,0.0
1557407178017998046,160,1557407178017998046,map,,10.9422932211,0.761242703535,-2.369,0.0,0.0,0.0,1.0,23.251684,0.0,0.0,0.0,0.0,0.0,0.0,23.251684,0.0,0.0,0.0,0.0,0.0,0.0,68.923204,0.0,0.0,0.0,0.0,0.0,0.0,0.0,0.0,0.0,0.0,0.0,0.0,0.0,0.0,0.0,0.0,0.0,0.0,0.0,0.0,0.0,0.0,0.0,0.0,0.0,0.0,0.0,0.0,0.0,0.0,0.0,0.0,0.0,0.0,0.0,0.0,0.0,0.0,0.0,0.0,0.0,0.0,0.0,0.0,0.0,0.0,0.0,0.0,0.0,0.0,0.0,0.0,0.0,0.0,0.0,0.0,0.0,0.0,0.0,0.0,0.0,0.0,0.0
1557407179017742398,161,1557407179017742398,map,,11.1094615515,0.948957026936,-1.802,0.0,0.0,0.0,1.0,23.464336,0.0,0.0,0.0,0.0,0.0,0.0,23.464336,0.0,0.0,0.0,0.0,0.0,0.0,68.989636,0.0,0.0,0.0,0.0,0.0,0.0,0.0,0.0,0.0,0.0,0.0,0.0,0.0,0.0,0.0,0.0,0.0,0.0,0.0,0.0,0.0,0.0,0.0,0.0,0.0,0.0,0.0,0.0,0.0,0.0,0.0,0.0,0.0,0.0,0.0,0.0,0.0,0.0,0.0,0.0,0.0,0.0,0.0,0.0,0.0,0.0,0.0,0.0,0.0,0.0,0.0,0.0,0.0,0.0,0.0,0.0,0.0,0.0,0.0,0.0,0.0,0.0,0.0
1557407180017751711,162,1557407180017751711,map,,11.2212632671,1.15551735461,-1.414,0.0,0.0,0.0,1.0,23.7169,-1.7763568394e-15,0.0,0.0,0.0,0.0,1.7763568394e-15,23.7169,0.0,0.0,0.0,0.0,0.0,0.0,69.155856,0.0,0.0,0.0,0.0,0.0,0.0,0.0,0.0,0.0,0.0,0.0,0.0,0.0,0.0,0.0,0.0,0.0,0.0,0.0,0.0,0.0,0.0,0.0,0.0,0.0,0.0,0.0,0.0,0.0,0.0,0.0,0.0,0.0,0.0,0.0,0.0,0.0,0.0,0.0,0.0,0.0,0.0,0.0,0.0,0.0,0.0,0.0,0.0,0.0,0.0,0.0,0.0,0.0,0.0,0.0,0.0,0.0,0.0,0.0,0.0,0.0,0.0,0.0
1557407181016976484,163,1557407181016976484,map,,11.18495546,1.36812543869,-1.23,0.0,0.0,0.0,1.0,23.921881,1.7763568394e-15,0.0,0.0,0.0,0.0,-1.7763568394e-15,23.921881,0.0,0.0,0.0,0.0,0.0,0.0,69.155856,0.0,0.0,0.0,0.0,0.0,0.0,0.0,0.0,0.0,0.0,0.0,0.0,0.0,0.0,0.0,0.0,0.0,0.0,0.0,0.0,0.0,0.0,0.0,0.0,0.0,0.0,0.0,0.0,0.0,0.0,0.0,0.0,0.0,0.0,0.0,0.0,0.0,0.0,0.0,0.0,0.0,0.0,0.0,0.0,0.0,0.0,0.0,0.0,0.0,0.0,0.0,0.0,0.0,0.0,0.0,0.0,0.0,0.0,0.0,0.0,0.0,0.0,0.0
1557407182017626587,164,1557407182017626587,map,,11.1108352384,1.69792591035,-1.473,0.0,0.0,0.0,1.0,24.01,0.0,0.0,0.0,0.0,0.0,0.0,24.01,0.0,0.0,0.0,0.0,0.0,0.0,68.624656,0.0,0.0,0.0,0.0,0.0,0.0,0.0,0.0,0.0,0.0,0.0,0.0,0.0,0.0,0.0,0.0,0.0,0.0,0.0,0.0,0.0,0.0,0.0,0.0,0.0,0.0,0.0,0.0,0.0,0.0,0.0,0.0,0.0,0.0,0.0,0.0,0.0,0.0,0.0,0.0,0.0,0.0,0.0,0.0,0.0,0.0,0.0,0.0,0.0,0.0,0.0,0.0,0.0,0.0,0.0,0.0,0.0,0.0,0.0,0.0,0.0,0.0,0.0
1557407183017262467,165,1557407183017262467,map,,10.9331997326,2.03778048791,-1.893,0.0,0.0,0.0,1.0,24.078649,0.0,0.0,0.0,0.0,0.0,0.0,24.078649,0.0,0.0,0.0,0.0,0.0,0.0,68.046001,0.0,0.0,0.0,0.0,0.0,0.0,0.0,0.0,0.0,0.0,0.0,0.0,0.0,0.0,0.0,0.0,0.0,0.0,0.0,0.0,0.0,0.0,0.0,0.0,0.0,0.0,0.0,0.0,0.0,0.0,0.0,0.0,0.0,0.0,0.0,0.0,0.0,0.0,0.0,0.0,0.0,0.0,0.0,0.0,0.0,0.0,0.0,0.0,0.0,0.0,0.0,0.0,0.0,0.0,0.0,0.0,0.0,0.0,0.0,0.0,0.0,0.0,0.0
1557407184018321531,166,1557407184018321531,map,,10.7948813131,2.35585841537,-2.276,0.0,0.0,0.0,1.0,24.314761,1.7763568394e-15,0.0,0.0,0.0,0.0,-1.7763568394e-15,24.314761,0.0,0.0,0.0,0.0,0.0,0.0,67.963536,0.0,0.0,0.0,0.0,0.0,0.0,0.0,0.0,0.0,0.0,0.0,0.0,0.0,0.0,0.0,0.0,0.0,0.0,0.0,0.0,0.0,0.0,0.0,0.0,0.0,0.0,0.0,0.0,0.0,0.0,0.0,0.0,0.0,0.0,0.0,0.0,0.0,0.0,0.0,0.0,0.0,0.0,0.0,0.0,0.0,0.0,0.0,0.0,0.0,0.0,0.0,0.0,0.0,0.0,0.0,0.0,0.0,0.0,0.0,0.0,0.0,0.0,0.0
1557407185016901346,167,1557407185016901346,map,,10.6779986741,2.66544082761,-2.728,0.0,0.0,0.0,1.0,24.472809,-1.7763568394e-15,0.0,0.0,0.0,0.0,1.7763568394e-15,24.472809,0.0,0.0,0.0,0.0,0.0,0.0,67.551961,0.0,0.0,0.0,0.0,0.0,0.0,0.0,0.0,0.0,0.0,0.0,0.0,0.0,0.0,0.0,0.0,0.0,0.0,0.0,0.0,0.0,0.0,0.0,0.0,0.0,0.0,0.0,0.0,0.0,0.0,0.0,0.0,0.0,0.0,0.0,0.0,0.0,0.0,0.0,0.0,0.0,0.0,0.0,0.0,0.0,0.0,0.0,0.0,0.0,0.0,0.0,0.0,0.0,0.0,0.0,0.0,0.0,0.0,0.0,0.0,0.0,0.0,0.0
1557407186016997971,168,1557407186016997971,map,,10.4538282398,3.05471009016,-3.347,0.0,0.0,0.0,1.0,24.690961,0.0,0.0,0.0,0.0,0.0,0.0,24.690961,0.0,0.0,0.0,0.0,0.0,0.0,67.354849,0.0,0.0,0.0,0.0,0.0,0.0,0.0,0.0,0.0,0.0,0.0,0.0,0.0,0.0,0.0,0.0,0.0,0.0,0.0,0.0,0.0,0.0,0.0,0.0,0.0,0.0,0.0,0.0,0.0,0.0,0.0,0.0,0.0,0.0,0.0,0.0,0.0,0.0,0.0,0.0,0.0,0.0,0.0,0.0,0.0,0.0,0.0,0.0,0.0,0.0,0.0,0.0,0.0,0.0,0.0,0.0,0.0,0.0,0.0,0.0,0.0,0.0,0.0
1557407187017419559,169,1557407187017419559,map,,10.2546480475,3.44026944879,-3.923,0.0,0.0,0.0,1.0,24.880144,0.0,0.0,0.0,0.0,0.0,0.0,24.880144,0.0,0.0,0.0,0.0,0.0,0.0,67.158025,0.0,0.0,0.0,0.0,0.0,0.0,0.0,0.0,0.0,0.0,0.0,0.0,0.0,0.0,0.0,0.0,0.0,0.0,0.0,0.0,0.0,0.0,0.0,0.0,0.0,0.0,0.0,0.0,0.0,0.0,0.0,0.0,0.0,0.0,0.0,0.0,0.0,0.0,0.0,0.0,0.0,0.0,0.0,0.0,0.0,0.0,0.0,0.0,0.0,0.0,0.0,0.0,0.0,0.0,0.0,0.0,0.0,0.0,0.0,0.0,0.0,0.0,0.0
1557407188017441015,170,1557407188017441015,map,,10.0411410443,3.84389558062,-4.585,0.0,0.0,0.0,1.0,25.080064,1.7763568394e-15,0.0,0.0,0.0,0.0,-1.7763568394e-15,25.080064,0.0,0.0,0.0,0.0,0.0,0.0,66.994225,0.0,0.0,0.0,0.0,0.0,0.0,0.0,0.0,0.0,0.0,0.0,0.0,0.0,0.0,0.0,0.0,0.0,0.0,0.0,0.0,0.0,0.0,0.0,0.0,0.0,0.0,0.0,0.0,0.0,0.0,0.0,0.0,0.0,0.0,0.0,0.0,0.0,0.0,0.0,0.0,0.0,0.0,0.0,0.0,0.0,0.0,0.0,0.0,0.0,0.0,0.0,0.0,0.0,0.0,0.0,0.0,0.0,0.0,0.0,0.0,0.0,0.0,0.0
1557407189017253744,171,1557407189017253744,map,,9.80253484473,4.28844084498,-5.385,0.0,0.0,0.0,1.0,25.250625,1.7763568394e-15,0.0,0.0,0.0,0.0,-1.7763568394e-15,25.250625,0.0,0.0,0.0,0.0,0.0,0.0,66.683556,0.0,0.0,0.0,0.0,0.0,0.0,0.0,0.0,0.0,0.0,0.0,0.0,0.0,0.0,0.0,0.0,0.0,0.0,0.0,0.0,0.0,0.0,0.0,0.0,0.0,0.0,0.0,0.0,0.0,0.0,0.0,0.0,0.0,0.0,0.0,0.0,0.0,0.0,0.0,0.0,0.0,0.0,0.0,0.0,0.0,0.0,0.0,0.0,0.0,0.0,0.0,0.0,0.0,0.0,0.0,0.0,0.0,0.0,0.0,0.0,0.0,0.0,0.0
1557407190018369018,172,1557407190018369018,map,,9.62662224378,4.6492929589,-5.965,0.0,0.0,0.0,1.0,25.351225,0.0,0.0,0.0,0.0,0.0,0.0,25.351225,0.0,0.0,0.0,0.0,0.0,0.0,66.210769,0.0,0.0,0.0,0.0,0.0,0.0,0.0,0.0,0.0,0.0,0.0,0.0,0.0,0.0,0.0,0.0,0.0,0.0,0.0,0.0,0.0,0.0,0.0,0.0,0.0,0.0,0.0,0.0,0.0,0.0,0.0,0.0,0.0,0.0,0.0,0.0,0.0,0.0,0.0,0.0,0.0,0.0,0.0,0.0,0.0,0.0,0.0,0.0,0.0,0.0,0.0,0.0,0.0,0.0,0.0,0.0,0.0,0.0,0.0,0.0,0.0,0.0,0.0
1557407191019508695,173,1557407191019508695,map,,9.42194698378,5.08348778356,-6.838,0.0,0.0,0.0,1.0,25.452025,0.0,0.0,0.0,0.0,0.0,0.0,25.452025,0.0,0.0,0.0,0.0,0.0,0.0,65.755881,0.0,0.0,0.0,0.0,0.0,0.0,0.0,0.0,0.0,0.0,0.0,0.0,0.0,0.0,0.0,0.0,0.0,0.0,0.0,0.0,0.0,0.0,0.0,0.0,0.0,0.0,0.0,0.0,0.0,0.0,0.0,0.0,0.0,0.0,0.0,0.0,0.0,0.0,0.0,0.0,0.0,0.0,0.0,0.0,0.0,0.0,0.0,0.0,0.0,0.0,0.0,0.0,0.0,0.0,0.0,0.0,0.0,0.0,0.0,0.0,0.0,0.0,0.0
1557407192016063680,174,1557407192016063680,map,,9.22547069471,5.15516198799,-6.775,0.0,0.0,0.0,1.0,25.765776,0.0,0.0,0.0,0.0,0.0,0.0,25.765776,0.0,0.0,0.0,0.0,0.0,0.0,66.601921,0.0,0.0,0.0,0.0,0.0,0.0,0.0,0.0,0.0,0.0,0.0,0.0,0.0,0.0,0.0,0.0,0.0,0.0,0.0,0.0,0.0,0.0,0.0,0.0,0.0,0.0,0.0,0.0,0.0,0.0,0.0,0.0,0.0,0.0,0.0,0.0,0.0,0.0,0.0,0.0,0.0,0.0,0.0,0.0,0.0,0.0,0.0,0.0,0.0,0.0,0.0,0.0,0.0,0.0,0.0,0.0,0.0,0.0,0.0,0.0,0.0,0.0,0.0
1557407193017367467,175,1557407193017367467,map,,8.99323180504,5.25339847151,-6.852,0.0,0.0,0.0,1.0,26.071236,0.0,0.0,0.0,0.0,0.0,0.0,26.071236,0.0,0.0,0.0,0.0,0.0,0.0,67.436944,0.0,0.0,0.0,0.0,0.0,0.0,0.0,0.0,0.0,0.0,0.0,0.0,0.0,0.0,0.0,0.0,0.0,0.0,0.0,0.0,0.0,0.0,0.0,0.0,0.0,0.0,0.0,0.0,0.0,0.0,0.0,0.0,0.0,0.0,0.0,0.0,0.0,0.0,0.0,0.0,0.0,0.0,0.0,0.0,0.0,0.0,0.0,0.0,0.0,0.0,0.0,0.0,0.0,0.0,0.0,0.0,0.0,0.0,0.0,0.0,0.0,0.0,0.0
1557407194017641248,176,1557407194017641248,map,,8.76810182724,5.36120616924,-7.032,0.0,0.0,0.0,1.0,26.388769,0.0,0.0,0.0,0.0,0.0,0.0,26.388769,0.0,0.0,0.0,0.0,0.0,0.0,68.277169,0.0,0.0,0.0,0.0,0.0,0.0,0.0,0.0,0.0,0.0,0.0,0.0,0.0,0.0,0.0,0.0,0.0,0.0,0.0,0.0,0.0,0.0,0.0,0.0,0.0,0.0,0.0,0.0,0.0,0.0,0.0,0.0,0.0,0.0,0.0,0.0,0.0,0.0,0.0,0.0,0.0,0.0,0.0,0.0,0.0,0.0,0.0,0.0,0.0,0.0,0.0,0.0,0.0,0.0,0.0,0.0,0.0,0.0,0.0,0.0,0.0,0.0,0.0
1557407195017054029,177,1557407195017054029,map,,8.52498154808,5.51950419601,-7.376,0.0,0.0,0.0,1.0,26.697889,0.0,0.0,0.0,0.0,0.0,0.0,26.697889,0.0,0.0,0.0,0.0,0.0,0.0,69.039481,0.0,0.0,0.0,0.0,0.0,0.0,0.0,0.0,0.0,0.0,0.0,0.0,0.0,0.0,0.0,0.0,0.0,0.0,0.0,0.0,0.0,0.0,0.0,0.0,0.0,0.0,0.0,0.0,0.0,0.0,0.0,0.0,0.0,0.0,0.0,0.0,0.0,0.0,0.0,0.0,0.0,0.0,0.0,0.0,0.0,0.0,0.0,0.0,0.0,0.0,0.0,0.0,0.0,0.0,0.0,0.0,0.0,0.0,0.0,0.0,0.0,0.0,0.0
1557407196017172203,178,1557407196017172203,map,,8.32440579217,5.77243873011,-7.92,0.0,0.0,0.0,1.0,26.967249,1.7763568394e-15,0.0,0.0,0.0,0.0,-1.7763568394e-15,26.967249,0.0,0.0,0.0,0.0,0.0,0.0,69.655716,0.0,0.0,0.0,0.0,0.0,0.0,0.0,0.0,0.0,0.0,0.0,0.0,0.0,0.0,0.0,0.0,0.0,0.0,0.0,0.0,0.0,0.0,0.0,0.0,0.0,0.0,0.0,0.0,0.0,0.0,0.0,0.0,0.0,0.0,0.0,0.0,0.0,0.0,0.0,0.0,0.0,0.0,0.0,0.0,0.0,0.0,0.0,0.0,0.0,0.0,0.0,0.0,0.0,0.0,0.0,0.0,0.0,0.0,0.0,0.0,0.0,0.0,0.0
1557407197017092980,179,1557407197017092980,map,,7.99521548487,6.07634647097,-8.7,0.0,0.0,0.0,1.0,27.071209,-1.7763568394e-15,0.0,0.0,0.0,0.0,1.7763568394e-15,27.071209,0.0,0.0,0.0,0.0,0.0,0.0,69.7225,0.0,0.0,0.0,0.0,0.0,0.0,0.0,0.0,0.0,0.0,0.0,0.0,0.0,0.0,0.0,0.0,0.0,0.0,0.0,0.0,0.0,0.0,0.0,0.0,0.0,0.0,0.0,0.0,0.0,0.0,0.0,0.0,0.0,0.0,0.0,0.0,0.0,0.0,0.0,0.0,0.0,0.0,0.0,0.0,0.0,0.0,0.0,0.0,0.0,0.0,0.0,0.0,0.0,0.0,0.0,0.0,0.0,0.0,0.0,0.0,0.0,0.0,0.0
1557407198017192152,180,1557407198017192152,map,,7.78646205924,6.07545722369,-8.664,0.0,0.0,0.0,1.0,27.237961,0.0,0.0,0.0,0.0,0.0,0.0,27.237961,0.0,0.0,0.0,0.0,0.0,0.0,70.476025,0.0,0.0,0.0,0.0,0.0,0.0,0.0,0.0,0.0,0.0,0.0,0.0,0.0,0.0,0.0,0.0,0.0,0.0,0.0,0.0,0.0,0.0,0.0,0.0,0.0,0.0,0.0,0.0,0.0,0.0,0.0,0.0,0.0,0.0,0.0,0.0,0.0,0.0,0.0,0.0,0.0,0.0,0.0,0.0,0.0,0.0,0.0,0.0,0.0,0.0,0.0,0.0,0.0,0.0,0.0,0.0,0.0,0.0,0.0,0.0,0.0,0.0,0.0
1557407199018092807,181,1557407199018092807,map,,7.57910437789,6.20719295833,-9.018,0.0,0.0,0.0,1.0,27.373824,1.7763568394e-15,0.0,0.0,0.0,0.0,-1.7763568394e-15,27.373824,0.0,0.0,0.0,0.0,0.0,0.0,71.149225,0.0,0.0,0.0,0.0,0.0,0.0,0.0,0.0,0.0,0.0,0.0,0.0,0.0,0.0,0.0,0.0,0.0,0.0,0.0,0.0,0.0,0.0,0.0,0.0,0.0,0.0,0.0,0.0,0.0,0.0,0.0,0.0,0.0,0.0,0.0,0.0,0.0,0.0,0.0,0.0,0.0,0.0,0.0,0.0,0.0,0.0,0.0,0.0,0.0,0.0,0.0,0.0,0.0,0.0,0.0,0.0,0.0,0.0,0.0,0.0,0.0,0.0,0.0
1557407200017633357,182,1557407200017633357,map,,7.35214266181,6.33121243026,-9.394,0.0,0.0,0.0,1.0,27.499536,0.0,0.0,0.0,0.0,0.0,0.0,27.499536,0.0,0.0,0.0,0.0,0.0,0.0,71.757841,0.0,0.0,0.0,0.0,0.0,0.0,0.0,0.0,0.0,0.0,0.0,0.0,0.0,0.0,0.0,0.0,0.0,0.0,0.0,0.0,0.0,0.0,0.0,0.0,0.0,0.0,0.0,0.0,0.0,0.0,0.0,0.0,0.0,0.0,0.0,0.0,0.0,0.0,0.0,0.0,0.0,0.0,0.0,0.0,0.0,0.0,0.0,0.0,0.0,0.0,0.0,0.0,0.0,0.0,0.0,0.0,0.0,0.0,0.0,0.0,0.0,0.0,0.0
1557407201016860899,183,1557407201016860899,map,,7.05915092304,6.45972108375,-9.711,0.0,0.0,0.0,1.0,27.604516,1.7763568394e-15,0.0,0.0,0.0,0.0,-1.7763568394e-15,27.604516,0.0,0.0,0.0,0.0,0.0,0.0,72.233001,0.0,0.0,0.0,0.0,0.0,0.0,0.0,0.0,0.0,0.0,0.0,0.0,0.0,0.0,0.0,0.0,0.0,0.0,0.0,0.0,0.0,0.0,0.0,0.0,0.0,0.0,0.0,0.0,0.0,0.0,0.0,0.0,0.0,0.0,0.0,0.0,0.0,0.0,0.0,0.0,0.0,0.0,0.0,0.0,0.0,0.0,0.0,0.0,0.0,0.0,0.0,0.0,0.0,0.0,0.0,0.0,0.0,0.0,0.0,0.0,0.0,0.0,0.0
1557407202017256879,184,1557407202017256879,map,,6.75516881887,6.68550049979,-10.222,0.0,0.0,0.0,1.0,27.657081,0.0,0.0,0.0,0.0,0.0,0.0,27.657081,0.0,0.0,0.0,0.0,0.0,0.0,72.488196,0.0,0.0,0.0,0.0,0.0,0.0,0.0,0.0,0.0,0.0,0.0,0.0,0.0,0.0,0.0,0.0,0.0,0.0,0.0,0.0,0.0,0.0,0.0,0.0,0.0,0.0,0.0,0.0,0.0,0.0,0.0,0.0,0.0,0.0,0.0,0.0,0.0,0.0,0.0,0.0,0.0,0.0,0.0,0.0,0.0,0.0,0.0,0.0,0.0,0.0,0.0,0.0,0.0,0.0,0.0,0.0,0.0,0.0,0.0,0.0,0.0,0.0,0.0
1557407203017055427,185,1557407203017055427,map,,6.61761359777,6.74311424978,-10.048,0.0,0.0,0.0,1.0,27.751824,-1.7763568394e-15,0.0,0.0,0.0,0.0,1.7763568394e-15,27.751824,0.0,0.0,0.0,0.0,0.0,0.0,73.136704,0.0,0.0,0.0,0.0,0.0,0.0,0.0,0.0,0.0,0.0,0.0,0.0,0.0,0.0,0.0,0.0,0.0,0.0,0.0,0.0,0.0,0.0,0.0,0.0,0.0,0.0,0.0,0.0,0.0,0.0,0.0,0.0,0.0,0.0,0.0,0.0,0.0,0.0,0.0,0.0,0.0,0.0,0.0,0.0,0.0,0.0,0.0,0.0,0.0,0.0,0.0,0.0,0.0,0.0,0.0,0.0,0.0,0.0,0.0,0.0,0.0,0.0,0.0
1557407204017318909,186,1557407204017318909,map,,6.39560210053,7.00454434566,-10.395,0.0,0.0,0.0,1.0,27.910089,1.7763568394e-15,0.0,0.0,0.0,0.0,-1.7763568394e-15,27.910089,0.0,0.0,0.0,0.0,0.0,0.0,73.874025,0.0,0.0,0.0,0.0,0.0,0.0,0.0,0.0,0.0,0.0,0.0,0.0,0.0,0.0,0.0,0.0,0.0,0.0,0.0,0.0,0.0,0.0,0.0,0.0,0.0,0.0,0.0,0.0,0.0,0.0,0.0,0.0,0.0,0.0,0.0,0.0,0.0,0.0,0.0,0.0,0.0,0.0,0.0,0.0,0.0,0.0,0.0,0.0,0.0,0.0,0.0,0.0,0.0,0.0,0.0,0.0,0.0,0.0,0.0,0.0,0.0,0.0,0.0
1557407205017548853,187,1557407205017548853,map,,6.07168899849,7.33423512429,-11.035,0.0,0.0,0.0,1.0,28.037025,0.0,0.0,0.0,0.0,0.0,0.0,28.037025,0.0,0.0,0.0,0.0,0.0,0.0,74.511424,0.0,0.0,0.0,0.0,0.0,0.0,0.0,0.0,0.0,0.0,0.0,0.0,0.0,0.0,0.0,0.0,0.0,0.0,0.0,0.0,0.0,0.0,0.0,0.0,0.0,0.0,0.0,0.0,0.0,0.0,0.0,0.0,0.0,0.0,0.0,0.0,0.0,0.0,0.0,0.0,0.0,0.0,0.0,0.0,0.0,0.0,0.0,0.0,0.0,0.0,0.0,0.0,0.0,0.0,0.0,0.0,0.0,0.0,0.0,0.0,0.0,0.0,0.0
1557407206017615692,188,1557407206017615692,map,,5.81563766114,7.64322494064,-11.55,0.0,0.0,0.0,1.0,28.153636,0.0,0.0,0.0,0.0,0.0,0.0,28.153636,0.0,0.0,0.0,0.0,0.0,0.0,75.099556,0.0,0.0,0.0,0.0,0.0,0.0,0.0,0.0,0.0,0.0,0.0,0.0,0.0,0.0,0.0,0.0,0.0,0.0,0.0,0.0,0.0,0.0,0.0,0.0,0.0,0.0,0.0,0.0,0.0,0.0,0.0,0.0,0.0,0.0,0.0,0.0,0.0,0.0,0.0,0.0,0.0,0.0,0.0,0.0,0.0,0.0,0.0,0.0,0.0,0.0,0.0,0.0,0.0,0.0,0.0,0.0,0.0,0.0,0.0,0.0,0.0,0.0,0.0
1557407207017554118,189,1557407207017554118,map,,5.62195292022,7.98014919367,-11.972,0.0,0.0,0.0,1.0,28.217344,-1.7763568394e-15,0.0,0.0,0.0,0.0,1.7763568394e-15,28.217344,0.0,0.0,0.0,0.0,0.0,0.0,75.620416,0.0,0.0,0.0,0.0,0.0,0.0,0.0,0.0,0.0,0.0,0.0,0.0,0.0,0.0,0.0,0.0,0.0,0.0,0.0,0.0,0.0,0.0,0.0,0.0,0.0,0.0,0.0,0.0,0.0,0.0,0.0,0.0,0.0,0.0,0.0,0.0,0.0,0.0,0.0,0.0,0.0,0.0,0.0,0.0,0.0,0.0,0.0,0.0,0.0,0.0,0.0,0.0,0.0,0.0,0.0,0.0,0.0,0.0,0.0,0.0,0.0,0.0,0.0
1557407208017359021,190,1557407208017359021,map,,5.42019938864,8.02604031749,-12.108,0.0,0.0,0.0,1.0,28.206721,1.7763568394e-15,0.0,0.0,0.0,0.0,-1.7763568394e-15,28.206721,0.0,0.0,0.0,0.0,0.0,0.0,75.951225,0.0,0.0,0.0,0.0,0.0,0.0,0.0,0.0,0.0,0.0,0.0,0.0,0.0,0.0,0.0,0.0,0.0,0.0,0.0,0.0,0.0,0.0,0.0,0.0,0.0,0.0,0.0,0.0,0.0,0.0,0.0,0.0,0.0,0.0,0.0,0.0,0.0,0.0,0.0,0.0,0.0,0.0,0.0,0.0,0.0,0.0,0.0,0.0,0.0,0.0,0.0,0.0,0.0,0.0,0.0,0.0,0.0,0.0,0.0,0.0,0.0,0.0,0.0
1557407209017338873,191,1557407209017338873,map,,5.27187178843,8.10650643706,-12.281,0.0,0.0,0.0,1.0,28.153636,0.0,0.0,0.0,0.0,0.0,0.0,28.153636,0.0,0.0,0.0,0.0,0.0,0.0,76.2129,0.0,0.0,0.0,0.0,0.0,0.0,0.0,0.0,0.0,0.0,0.0,0.0,0.0,0.0,0.0,0.0,0.0,0.0,0.0,0.0,0.0,0.0,0.0,0.0,0.0,0.0,0.0,0.0,0.0,0.0,0.0,0.0,0.0,0.0,0.0,0.0,0.0,0.0,0.0,0.0,0.0,0.0,0.0,0.0,0.0,0.0,0.0,0.0,0.0,0.0,0.0,0.0,0.0,0.0,0.0,0.0,0.0,0.0,0.0,0.0,0.0,0.0,0.0
1557407210017930039,192,1557407210017930039,map,,5.02120666485,8.40407009888,-12.933,0.0,0.0,0.0,1.0,28.206721,1.7763568394e-15,0.0,0.0,0.0,0.0,-1.7763568394e-15,28.206721,0.0,0.0,0.0,0.0,0.0,0.0,76.755121,0.0,0.0,0.0,0.0,0.0,0.0,0.0,0.0,0.0,0.0,0.0,0.0,0.0,0.0,0.0,0.0,0.0,0.0,0.0,0.0,0.0,0.0,0.0,0.0,0.0,0.0,0.0,0.0,0.0,0.0,0.0,0.0,0.0,0.0,0.0,0.0,0.0,0.0,0.0,0.0,0.0,0.0,0.0,0.0,0.0,0.0,0.0,0.0,0.0,0.0,0.0,0.0,0.0,0.0,0.0,0.0,0.0,0.0,0.0,0.0,0.0,0.0,0.0
1557407211017317854,193,1557407211017317854,map,,4.77409601957,8.70641938411,-13.548,0.0,0.0,0.0,1.0,28.270489,1.7763568394e-15,0.0,0.0,0.0,0.0,-1.7763568394e-15,28.270489,0.0,0.0,0.0,0.0,0.0,0.0,77.316849,0.0,0.0,0.0,0.0,0.0,0.0,0.0,0.0,0.0,0.0,0.0,0.0,0.0,0.0,0.0,0.0,0.0,0.0,0.0,0.0,0.0,0.0,0.0,0.0,0.0,0.0,0.0,0.0,0.0,0.0,0.0,0.0,0.0,0.0,0.0,0.0,0.0,0.0,0.0,0.0,0.0,0.0,0.0,0.0,0.0,0.0,0.0,0.0,0.0,0.0,0.0,0.0,0.0,0.0,0.0,0.0,0.0,0.0,0.0,0.0,0.0,0.0,0.0
1557407212017014608,194,1557407212017014608,map,,4.57836167421,9.13397394121,-14.187,0.0,0.0,0.0,1.0,28.313041,1.7763568394e-15,0.0,0.0,0.0,0.0,-1.7763568394e-15,28.313041,0.0,0.0,0.0,0.0,0.0,0.0,77.810041,0.0,0.0,0.0,0.0,0.0,0.0,0.0,0.0,0.0,0.0,0.0,0.0,0.0,0.0,0.0,0.0,0.0,0.0,0.0,0.0,0.0,0.0,0.0,0.0,0.0,0.0,0.0,0.0,0.0,0.0,0.0,0.0,0.0,0.0,0.0,0.0,0.0,0.0,0.0,0.0,0.0,0.0,0.0,0.0,0.0,0.0,0.0,0.0,0.0,0.0,0.0,0.0,0.0,0.0,0.0,0.0,0.0,0.0,0.0,0.0,0.0,0.0,0.0
1557407213017238898,195,1557407213017238898,map,,4.37994464952,9.25906912051,-14.318,0.0,0.0,0.0,1.0,28.313041,1.7763568394e-15,0.0,0.0,0.0,0.0,-1.7763568394e-15,28.313041,0.0,0.0,0.0,0.0,0.0,0.0,78.180964,0.0,0.0,0.0,0.0,0.0,0.0,0.0,0.0,0.0,0.0,0.0,0.0,0.0,0.0,0.0,0.0,0.0,0.0,0.0,0.0,0.0,0.0,0.0,0.0,0.0,0.0,0.0,0.0,0.0,0.0,0.0,0.0,0.0,0.0,0.0,0.0,0.0,0.0,0.0,0.0,0.0,0.0,0.0,0.0,0.0,0.0,0.0,0.0,0.0,0.0,0.0,0.0,0.0,0.0,0.0,0.0,0.0,0.0,0.0,0.0,0.0,0.0,0.0
1557407214016952871,196,1557407214016952871,map,,4.08813079912,9.59462131094,-14.749,0.0,0.0,0.0,1.0,28.398241,0.0,0.0,0.0,0.0,0.0,0.0,28.398241,0.0,0.0,0.0,0.0,0.0,0.0,78.783376,0.0,0.0,0.0,0.0,0.0,0.0,0.0,0.0,0.0,0.0,0.0,0.0,0.0,0.0,0.0,0.0,0.0,0.0,0.0,0.0,0.0,0.0,0.0,0.0,0.0,0.0,0.0,0.0,0.0,0.0,0.0,0.0,0.0,0.0,0.0,0.0,0.0,0.0,0.0,0.0,0.0,0.0,0.0,0.0,0.0,0.0,0.0,0.0,0.0,0.0,0.0,0.0,0.0,0.0,0.0,0.0,0.0,0.0,0.0,0.0,0.0,0.0,0.0
1557407215017592118,197,1557407215017592118,map,,3.9292487707,9.62352136243,-14.742,0.0,0.0,0.0,1.0,28.4089,-1.7763568394e-15,0.0,0.0,0.0,0.0,1.7763568394e-15,28.4089,0.0,0.0,0.0,0.0,0.0,0.0,79.174404,0.0,0.0,0.0,0.0,0.0,0.0,0.0,0.0,0.0,0.0,0.0,0.0,0.0,0.0,0.0,0.0,0.0,0.0,0.0,0.0,0.0,0.0,0.0,0.0,0.0,0.0,0.0,0.0,0.0,0.0,0.0,0.0,0.0,0.0,0.0,0.0,0.0,0.0,0.0,0.0,0.0,0.0,0.0,0.0,0.0,0.0,0.0,0.0,0.0,0.0,0.0,0.0,0.0,0.0,0.0,0.0,0.0,0.0,0.0,0.0,0.0,0.0,0.0
1557407216017546108,198,1557407216017546108,map,,3.63560321741,9.97528537083,-15.226,0.0,0.0,0.0,1.0,28.5156,-1.7763568394e-15,0.0,0.0,0.0,0.0,1.7763568394e-15,28.5156,0.0,0.0,0.0,0.0,0.0,0.0,79.834225,0.0,0.0,0.0,0.0,0.0,0.0,0.0,0.0,0.0,0.0,0.0,0.0,0.0,0.0,0.0,0.0,0.0,0.0,0.0,0.0,0.0,0.0,0.0,0.0,0.0,0.0,0.0,0.0,0.0,0.0,0.0,0.0,0.0,0.0,0.0,0.0,0.0,0.0,0.0,0.0,0.0,0.0,0.0,0.0,0.0,0.0,0.0,0.0,0.0,0.0,0.0,0.0,0.0,0.0,0.0,0.0,0.0,0.0,0.0,0.0,0.0,0.0,0.0
1557407217017189204,199,1557407217017189204,map,,3.44634476863,10.019321518,-15.162,0.0,0.0,0.0,1.0,28.590409,0.0,0.0,0.0,0.0,0.0,0.0,28.590409,0.0,0.0,0.0,0.0,0.0,0.0,80.371225,0.0,0.0,0.0,0.0,0.0,0.0,0.0,0.0,0.0,0.0,0.0,0.0,0.0,0.0,0.0,0.0,0.0,0.0,0.0,0.0,0.0,0.0,0.0,0.0,0.0,0.0,0.0,0.0,0.0,0.0,0.0,0.0,0.0,0.0,0.0,0.0,0.0,0.0,0.0,0.0,0.0,0.0,0.0,0.0,0.0,0.0,0.0,0.0,0.0,0.0,0.0,0.0,0.0,0.0,0.0,0.0,0.0,0.0,0.0,0.0,0.0,0.0,0.0
1557407218017689743,200,1557407218017689743,map,,3.11887730844,10.3442267934,-15.61,0.0,0.0,0.0,1.0,28.708164,0.0,0.0,0.0,0.0,0.0,0.0,28.708164,0.0,0.0,0.0,0.0,0.0,0.0,81.072016,0.0,0.0,0.0,0.0,0.0,0.0,0.0,0.0,0.0,0.0,0.0,0.0,0.0,0.0,0.0,0.0,0.0,0.0,0.0,0.0,0.0,0.0,0.0,0.0,0.0,0.0,0.0,0.0,0.0,0.0,0.0,0.0,0.0,0.0,0.0,0.0,0.0,0.0,0.0,0.0,0.0,0.0,0.0,0.0,0.0,0.0,0.0,0.0,0.0,0.0,0.0,0.0,0.0,0.0,0.0,0.0,0.0,0.0,0.0,0.0,0.0,0.0,0.0
1557407219017188717,201,1557407219017188717,map,,2.87414325029,10.4443181753,-15.724,0.0,0.0,0.0,1.0,28.8369,0.0,0.0,0.0,0.0,0.0,0.0,28.8369,0.0,0.0,0.0,0.0,0.0,0.0,81.739681,0.0,0.0,0.0,0.0,0.0,0.0,0.0,0.0,0.0,0.0,0.0,0.0,0.0,0.0,0.0,0.0,0.0,0.0,0.0,0.0,0.0,0.0,0.0,0.0,0.0,0.0,0.0,0.0,0.0,0.0,0.0,0.0,0.0,0.0,0.0,0.0,0.0,0.0,0.0,0.0,0.0,0.0,0.0,0.0,0.0,0.0,0.0,0.0,0.0,0.0,0.0,0.0,0.0,0.0,0.0,0.0,0.0,0.0,0.0,0.0,0.0,0.0,0.0
1557407220017367588,202,1557407220017367588,map,,2.59127008263,10.7732298337,-16.24,0.0,0.0,0.0,1.0,29.008996,0.0,0.0,0.0,0.0,0.0,0.0,29.008996,0.0,0.0,0.0,0.0,0.0,0.0,82.573569,0.0,0.0,0.0,0.0,0.0,0.0,0.0,0.0,0.0,0.0,0.0,0.0,0.0,0.0,0.0,0.0,0.0,0.0,0.0,0.0,0.0,0.0,0.0,0.0,0.0,0.0,0.0,0.0,0.0,0.0,0.0,0.0,0.0,0.0,0.0,0.0,0.0,0.0,0.0,0.0,0.0,0.0,0.0,0.0,0.0,0.0,0.0,0.0,0.0,0.0,0.0,0.0,0.0,0.0,0.0,0.0,0.0,0.0,0.0,0.0,0.0,0.0,0.0
1557407221017955760,203,1557407221017955760,map,,2.34049610235,11.108002834,-16.817,0.0,0.0,0.0,1.0,29.343889,0.0,0.0,0.0,0.0,0.0,0.0,29.343889,0.0,0.0,0.0,0.0,0.0,0.0,83.814025,0.0,0.0,0.0,0.0,0.0,0.0,0.0,0.0,0.0,0.0,0.0,0.0,0.0,0.0,0.0,0.0,0.0,0.0,0.0,0.0,0.0,0.0,0.0,0.0,0.0,0.0,0.0,0.0,0.0,0.0,0.0,0.0,0.0,0.0,0.0,0.0,0.0,0.0,0.0,0.0,0.0,0.0,0.0,0.0,0.0,0.0,0.0,0.0,0.0,0.0,0.0,0.0,0.0,0.0,0.0,0.0,0.0,0.0,0.0,0.0,0.0,0.0,0.0
1557407222016594893,204,1557407222016594893,map,,2.14347497746,11.3657231713,-17.316,0.0,0.0,0.0,1.0,29.746116,1.7763568394e-15,0.0,0.0,0.0,0.0,-1.7763568394e-15,29.746116,0.0,0.0,0.0,0.0,0.0,0.0,85.229824,0.0,0.0,0.0,0.0,0.0,0.0,0.0,0.0,0.0,0.0,0.0,0.0,0.0,0.0,0.0,0.0,0.0,0.0,0.0,0.0,0.0,0.0,0.0,0.0,0.0,0.0,0.0,0.0,0.0,0.0,0.0,0.0,0.0,0.0,0.0,0.0,0.0,0.0,0.0,0.0,0.0,0.0,0.0,0.0,0.0,0.0,0.0,0.0,0.0,0.0,0.0,0.0,0.0,0.0,0.0,0.0,0.0,0.0,0.0,0.0,0.0,0.0,0.0
1557407223016127134,205,1557407223016127134,map,,1.93406769633,11.5880892305,-17.823,0.0,0.0,0.0,1.0,30.239001,-1.7763568394e-15,0.0,0.0,0.0,0.0,1.7763568394e-15,30.239001,0.0,0.0,0.0,0.0,0.0,0.0,86.825124,0.0,0.0,0.0,0.0,0.0,0.0,0.0,0.0,0.0,0.0,0.0,0.0,0.0,0.0,0.0,0.0,0.0,0.0,0.0,0.0,0.0,0.0,0.0,0.0,0.0,0.0,0.0,0.0,0.0,0.0,0.0,0.0,0.0,0.0,0.0,0.0,0.0,0.0,0.0,0.0,0.0,0.0,0.0,0.0,0.0,0.0,0.0,0.0,0.0,0.0,0.0,0.0,0.0,0.0,0.0,0.0,0.0,0.0,0.0,0.0,0.0,0.0,0.0
1557407224016543225,206,1557407224016543225,map,,1.90896851197,11.6290083807,-17.885,0.0,0.0,0.0,1.0,30.713764,-1.7763568394e-15,0.0,0.0,0.0,0.0,1.7763568394e-15,30.713764,0.0,0.0,0.0,0.0,0.0,0.0,88.341201,0.0,0.0,0.0,0.0,0.0,0.0,0.0,0.0,0.0,0.0,0.0,0.0,0.0,0.0,0.0,0.0,0.0,0.0,0.0,0.0,0.0,0.0,0.0,0.0,0.0,0.0,0.0,0.0,0.0,0.0,0.0,0.0,0.0,0.0,0.0,0.0,0.0,0.0,0.0,0.0,0.0,0.0,0.0,0.0,0.0,0.0,0.0,0.0,0.0,0.0,0.0,0.0,0.0,0.0,0.0,0.0,0.0,0.0,0.0,0.0,0.0,0.0,0.0
1557407225015761046,207,1557407225015761046,map,,1.61769949365,11.7785144392,-18.467,0.0,0.0,0.0,1.0,31.281649,0.0,0.0,0.0,0.0,0.0,0.0,31.281649,0.0,0.0,0.0,0.0,0.0,0.0,90.098064,0.0,0.0,0.0,0.0,0.0,0.0,0.0,0.0,0.0,0.0,0.0,0.0,0.0,0.0,0.0,0.0,0.0,0.0,0.0,0.0,0.0,0.0,0.0,0.0,0.0,0.0,0.0,0.0,0.0,0.0,0.0,0.0,0.0,0.0,0.0,0.0,0.0,0.0,0.0,0.0,0.0,0.0,0.0,0.0,0.0,0.0,0.0,0.0,0.0,0.0,0.0,0.0,0.0,0.0,0.0,0.0,0.0,0.0,0.0,0.0,0.0,0.0,0.0
1557407226016748611,208,1557407226016748611,map,,1.41895563062,12.0152373658,-19.026,0.0,0.0,0.0,1.0,31.843449,-1.7763568394e-15,0.0,0.0,0.0,0.0,1.7763568394e-15,31.843449,0.0,0.0,0.0,0.0,0.0,0.0,91.853056,0.0,0.0,0.0,0.0,0.0,0.0,0.0,0.0,0.0,0.0,0.0,0.0,0.0,0.0,0.0,0.0,0.0,0.0,0.0,0.0,0.0,0.0,0.0,0.0,0.0,0.0,0.0,0.0,0.0,0.0,0.0,0.0,0.0,0.0,0.0,0.0,0.0,0.0,0.0,0.0,0.0,0.0,0.0,0.0,0.0,0.0,0.0,0.0,0.0,0.0,0.0,0.0,0.0,0.0,0.0,0.0,0.0,0.0,0.0,0.0,0.0,0.0,0.0
1557407227015961747,209,1557407227015961747,map,,1.15267684404,12.1610335149,-19.613,0.0,0.0,0.0,1.0,32.353344,-1.7763568394e-15,0.0,0.0,0.0,0.0,1.7763568394e-15,32.353344,0.0,0.0,0.0,0.0,0.0,0.0,93.354244,0.0,0.0,0.0,0.0,0.0,0.0,0.0,0.0,0.0,0.0,0.0,0.0,0.0,0.0,0.0,0.0,0.0,0.0,0.0,0.0,0.0,0.0,0.0,0.0,0.0,0.0,0.0,0.0,0.0,0.0,0.0,0.0,0.0,0.0,0.0,0.0,0.0,0.0,0.0,0.0,0.0,0.0,0.0,0.0,0.0,0.0,0.0,0.0,0.0,0.0,0.0,0.0,0.0,0.0,0.0,0.0,0.0,0.0,0.0,0.0,0.0,0.0,0.0
1557407228017032103,210,1557407228017032103,map,,0.866793998517,12.2991133677,-20.184,0.0,0.0,0.0,1.0,32.901696,0.0,0.0,0.0,0.0,0.0,0.0,32.901696,0.0,0.0,0.0,0.0,0.0,0.0,94.945536,0.0,0.0,0.0,0.0,0.0,0.0,0.0,0.0,0.0,0.0,0.0,0.0,0.0,0.0,0.0,0.0,0.0,0.0,0.0,0.0,0.0,0.0,0.0,0.0,0.0,0.0,0.0,0.0,0.0,0.0,0.0,0.0,0.0,0.0,0.0,0.0,0.0,0.0,0.0,0.0,0.0,0.0,0.0,0.0,0.0,0.0,0.0,0.0,0.0,0.0,0.0,0.0,0.0,0.0,0.0,0.0,0.0,0.0,0.0,0.0,0.0,0.0,0.0
1557407229017278075,211,1557407229017278075,map,,0.770605415106,12.2443201076,-20.273,0.0,0.0,0.0,1.0,33.362176,0.0,0.0,0.0,0.0,0.0,0.0,33.362176,0.0,0.0,0.0,0.0,0.0,0.0,96.216481,0.0,0.0,0.0,0.0,0.0,0.0,0.0,0.0,0.0,0.0,0.0,0.0,0.0,0.0,0.0,0.0,0.0,0.0,0.0,0.0,0.0,0.0,0.0,0.0,0.0,0.0,0.0,0.0,0.0,0.0,0.0,0.0,0.0,0.0,0.0,0.0,0.0,0.0,0.0,0.0,0.0,0.0,0.0,0.0,0.0,0.0,0.0,0.0,0.0,0.0,0.0,0.0,0.0,0.0,0.0,0.0,0.0,0.0,0.0,0.0,0.0,0.0,0.0
1557407230017205357,212,1557407230017205357,map,,0.440019317903,12.4156028125,-20.749,0.0,0.0,0.0,1.0,34.000561,3.5527136788e-15,0.0,0.0,0.0,0.0,-3.5527136788e-15,34.000561,0.0,0.0,0.0,0.0,0.0,0.0,98.029801,0.0,0.0,0.0,0.0,0.0,0.0,0.0,0.0,0.0,0.0,0.0,0.0,0.0,0.0,0.0,0.0,0.0,0.0,0.0,0.0,0.0,0.0,0.0,0.0,0.0,0.0,0.0,0.0,0.0,0.0,0.0,0.0,0.0,0.0,0.0,0.0,0.0,0.0,0.0,0.0,0.0,0.0,0.0,0.0,0.0,0.0,0.0,0.0,0.0,0.0,0.0,0.0,0.0,0.0,0.0,0.0,0.0,0.0,0.0,0.0,0.0,0.0,0.0
